{
"type": "FeatureCollection",
"name": "atlanta_pois",
"crs": { "type": "name", "properties": { "name": "urn:ogc:def:crs:OGC:1.3:CRS84" } },
"features": [
{ "type": "Feature", "properties": { "type": "restaurant", "name": "Raging Burrito", "lat": 33.7744662, "lon": -84.2955336, "amenity": "restaurant", "cuisine": "latin_american", "leisure": "", "osm_id": 251165087 }, "geometry": { "type": "Point", "coordinates": [ -84.2955336, 33.7744662 ] } },
{ "type": "Feature", "properties": { "type": "restaurant", "name": "Dumpling Master", "lat": 33.7896261, "lon": -84.3070836, "amenity": "restaurant", "cuisine": "asian", "leisure": "", "osm_id": 278046234 }, "geometry": { "type": "Point", "coordinates": [ -84.3070836, 33.7896261 ] } },
{ "type": "Feature", "properties": { "type": "restaurant", "name": "Thumbs Up Diner", "lat": 33.6788833, "lon": -84.4416707, "amenity": "restaurant", "cuisine": "", "leisure": "", "osm_id": 466099073 }, "geometry": { "type": "Point", "coordinates": [ -84.4416707, 33.6788833 ] } },
{ "type": "Feature", "properties": { "type": "restaurant", "name": "BGR Grille", "lat": 33.6787773, "lon": -84.4413506, "amenity": "restaurant", "cuisine": "", "leisure": "", "osm_id": 466100432 }, "geometry": { "type": "Point", "coordinates": [ -84.4413506, 33.6787773 ] } },
{ "type": "Feature", "properties": { "type": "restaurant", "name": "OZ Pizza", "lat": 33.678819, "lon": -84.4406407, "amenity": "restaurant", "cuisine": "", "leisure": "", "osm_id": 466101251 }, "geometry": { "type": "Point", "coordinates": [ -84.4406407, 33.678819 ] } },
{ "type": "Feature", "properties": { "type": "restaurant", "name": "Brake Pad", "lat": 33.6628398, "lon": -84.4466231, "amenity": "restaurant", "cuisine": "", "leisure": "", "osm_id": 466116713 }, "geometry": { "type": "Point", "coordinates": [ -84.4466231, 33.6628398 ] } },
{ "type": "Feature", "properties": { "type": "restaurant", "name": "The Vortex Bar & Grill", "lat": 33.7790324, "lon": -84.3844582, "amenity": "restaurant", "cuisine": "burger;american", "leisure": "", "osm_id": 466953197 }, "geometry": { "type": "Point", "coordinates": [ -84.3844582, 33.7790324 ] } },
{ "type": "Feature", "properties": { "type": "restaurant", "name": "Big Easy Louisiana Grille", "lat": 33.8116731, "lon": -84.4247042, "amenity": "restaurant", "cuisine": "", "leisure": "", "osm_id": 493167146 }, "geometry": { "type": "Point", "coordinates": [ -84.4247042, 33.8116731 ] } },
{ "type": "Feature", "properties": { "type": "restaurant", "name": "Terra Terroir Grill and Wine Patio", "lat": 33.8593974, "lon": -84.3413313, "amenity": "restaurant", "cuisine": "", "leisure": "", "osm_id": 495061296 }, "geometry": { "type": "Point", "coordinates": [ -84.3413313, 33.8593974 ] } },
{ "type": "Feature", "properties": { "type": "restaurant", "name": "Seasons American Bar and Grille", "lat": 33.7599513, "lon": -84.3908155, "amenity": "restaurant", "cuisine": "", "leisure": "", "osm_id": 497187699 }, "geometry": { "type": "Point", "coordinates": [ -84.3908155, 33.7599513 ] } },
{ "type": "Feature", "properties": { "type": "restaurant", "name": "Athens Pizza", "lat": 33.7918982, "lon": -84.3054055, "amenity": "restaurant", "cuisine": "", "leisure": "", "osm_id": 497203860 }, "geometry": { "type": "Point", "coordinates": [ -84.3054055, 33.7918982 ] } },
{ "type": "Feature", "properties": { "type": "restaurant", "name": "Ruth's Chris", "lat": 33.7607688, "lon": -84.3942593, "amenity": "restaurant", "cuisine": "steak_house", "leisure": "", "osm_id": 506225043 }, "geometry": { "type": "Point", "coordinates": [ -84.3942593, 33.7607688 ] } },
{ "type": "Feature", "properties": { "type": "restaurant", "name": "Park Avenue Deli & Market", "lat": 33.7608829, "lon": -84.3941563, "amenity": "restaurant", "cuisine": "", "leisure": "", "osm_id": 506225045 }, "geometry": { "type": "Point", "coordinates": [ -84.3941563, 33.7608829 ] } },
{ "type": "Feature", "properties": { "type": "restaurant", "name": "Chai Pani", "lat": 33.7753303, "lon": -84.3026959, "amenity": "restaurant", "cuisine": "", "leisure": "", "osm_id": 512861047 }, "geometry": { "type": "Point", "coordinates": [ -84.3026959, 33.7753303 ] } },
{ "type": "Feature", "properties": { "type": "restaurant", "name": "Ray's in the City", "lat": 33.7603914, "lon": -84.3877294, "amenity": "restaurant", "cuisine": "seafood", "leisure": "", "osm_id": 532203500 }, "geometry": { "type": "Point", "coordinates": [ -84.3877294, 33.7603914 ] } },
{ "type": "Feature", "properties": { "type": "restaurant", "name": "The Drafting Table Cocktails and Kitchen", "lat": 33.7602559, "lon": -84.3879873, "amenity": "restaurant", "cuisine": "american", "leisure": "", "osm_id": 532206807 }, "geometry": { "type": "Point", "coordinates": [ -84.3879873, 33.7602559 ] } },
{ "type": "Feature", "properties": { "type": "restaurant", "name": "The Majestic Diner", "lat": 33.7736379, "lon": -84.3537164, "amenity": "restaurant", "cuisine": "american", "leisure": "", "osm_id": 534028718 }, "geometry": { "type": "Point", "coordinates": [ -84.3537164, 33.7736379 ] } },
{ "type": "Feature", "properties": { "type": "restaurant", "name": "Ted's Montana Grill", "lat": 33.7585609, "lon": -84.390646, "amenity": "restaurant", "cuisine": "american", "leisure": "", "osm_id": 534407880 }, "geometry": { "type": "Point", "coordinates": [ -84.390646, 33.7585609 ] } },
{ "type": "Feature", "properties": { "type": "restaurant", "name": "Parish Market Cajun Kitchen", "lat": 33.7581865, "lon": -84.3903816, "amenity": "restaurant", "cuisine": "", "leisure": "", "osm_id": 534407928 }, "geometry": { "type": "Point", "coordinates": [ -84.3903816, 33.7581865 ] } },
{ "type": "Feature", "properties": { "type": "restaurant", "name": "Ray's NY Pizza, Cedar's Mediterranean", "lat": 33.7766541, "lon": -84.3881023, "amenity": "restaurant", "cuisine": "pizza;mediterranean", "leisure": "", "osm_id": 535031255 }, "geometry": { "type": "Point", "coordinates": [ -84.3881023, 33.7766541 ] } },
{ "type": "Feature", "properties": { "type": "restaurant", "name": "Gyro Bros", "lat": 33.7770131, "lon": -84.3900992, "amenity": "restaurant", "cuisine": "greek", "leisure": "", "osm_id": 535031278 }, "geometry": { "type": "Point", "coordinates": [ -84.3900992, 33.7770131 ] } },
{ "type": "Feature", "properties": { "type": "restaurant", "name": "La Fonda Latina", "lat": 33.7735134, "lon": -84.3571312, "amenity": "restaurant", "cuisine": "mexican;Cuban", "leisure": "", "osm_id": 536662857 }, "geometry": { "type": "Point", "coordinates": [ -84.3571312, 33.7735134 ] } },
{ "type": "Feature", "properties": { "type": "restaurant", "name": "El Ponce", "lat": 33.7735536, "lon": -84.3566457, "amenity": "restaurant", "cuisine": "mexican", "leisure": "", "osm_id": 536664043 }, "geometry": { "type": "Point", "coordinates": [ -84.3566457, 33.7735536 ] } },
{ "type": "Feature", "properties": { "type": "restaurant", "name": "Agave", "lat": 33.7479065, "lon": -84.3679063, "amenity": "restaurant", "cuisine": "", "leisure": "", "osm_id": 536669081 }, "geometry": { "type": "Point", "coordinates": [ -84.3679063, 33.7479065 ] } },
{ "type": "Feature", "properties": { "type": "restaurant", "name": "Siam Thai", "lat": 33.7744632, "lon": -84.2958842, "amenity": "restaurant", "cuisine": "thai", "leisure": "", "osm_id": 544023075 }, "geometry": { "type": "Point", "coordinates": [ -84.2958842, 33.7744632 ] } },
{ "type": "Feature", "properties": { "type": "restaurant", "name": "The Iberian Pig", "lat": 33.7744627, "lon": -84.2960053, "amenity": "restaurant", "cuisine": "spanish", "leisure": "", "osm_id": 544023079 }, "geometry": { "type": "Point", "coordinates": [ -84.2960053, 33.7744627 ] } },
{ "type": "Feature", "properties": { "type": "restaurant", "name": "no. 246", "lat": 33.7754635, "lon": -84.2953028, "amenity": "restaurant", "cuisine": "", "leisure": "", "osm_id": 544023141 }, "geometry": { "type": "Point", "coordinates": [ -84.2953028, 33.7754635 ] } },
{ "type": "Feature", "properties": { "type": "restaurant", "name": "Leon's Full Service", "lat": 33.7753821, "lon": -84.2951203, "amenity": "restaurant", "cuisine": "", "leisure": "", "osm_id": 544023145 }, "geometry": { "type": "Point", "coordinates": [ -84.2951203, 33.7753821 ] } },
{ "type": "Feature", "properties": { "type": "restaurant", "name": "Sweet Melissa's", "lat": 33.7752303, "lon": -84.2958139, "amenity": "restaurant", "cuisine": "", "leisure": "", "osm_id": 544023151 }, "geometry": { "type": "Point", "coordinates": [ -84.2958139, 33.7752303 ] } },
{ "type": "Feature", "properties": { "type": "restaurant", "name": "Cafe Alsace", "lat": 33.7754637, "lon": -84.2954825, "amenity": "restaurant", "cuisine": "french", "leisure": "", "osm_id": 544023250 }, "geometry": { "type": "Point", "coordinates": [ -84.2954825, 33.7754637 ] } },
{ "type": "Feature", "properties": { "type": "restaurant", "name": "Victory Sandwich Bar", "lat": 33.7742092, "lon": -84.2950236, "amenity": "restaurant", "cuisine": "sandwich", "leisure": "", "osm_id": 544034337 }, "geometry": { "type": "Point", "coordinates": [ -84.2950236, 33.7742092 ] } },
{ "type": "Feature", "properties": { "type": "restaurant", "name": "Mojo Pizza N Pub", "lat": 33.7593355, "lon": -84.3035051, "amenity": "restaurant", "cuisine": "pizza", "leisure": "", "osm_id": 544052451 }, "geometry": { "type": "Point", "coordinates": [ -84.3035051, 33.7593355 ] } },
{ "type": "Feature", "properties": { "type": "restaurant", "name": "Green Ginger", "lat": 33.7766784, "lon": -84.2996899, "amenity": "restaurant", "cuisine": "asian", "leisure": "", "osm_id": 544070685 }, "geometry": { "type": "Point", "coordinates": [ -84.2996899, 33.7766784 ] } },
{ "type": "Feature", "properties": { "type": "restaurant", "name": "FolkArt", "lat": 33.7754139, "lon": -84.2980746, "amenity": "restaurant", "cuisine": "breakfast;american", "leisure": "", "osm_id": 544125249 }, "geometry": { "type": "Point", "coordinates": [ -84.2980746, 33.7754139 ] } },
{ "type": "Feature", "properties": { "type": "restaurant", "name": "Noodle", "lat": 33.7753623, "lon": -84.2945911, "amenity": "restaurant", "cuisine": "noodle", "leisure": "", "osm_id": 544125274 }, "geometry": { "type": "Point", "coordinates": [ -84.2945911, 33.7753623 ] } },
{ "type": "Feature", "properties": { "type": "restaurant", "name": "Ford's BBQ", "lat": 33.7604701, "lon": -84.3034965, "amenity": "restaurant", "cuisine": "barbecue", "leisure": "", "osm_id": 544487927 }, "geometry": { "type": "Point", "coordinates": [ -84.3034965, 33.7604701 ] } },
{ "type": "Feature", "properties": { "type": "restaurant", "name": "Paolino Italian Restaurant", "lat": 33.7605772, "lon": -84.3031274, "amenity": "restaurant", "cuisine": "pasta", "leisure": "", "osm_id": 544487938 }, "geometry": { "type": "Point", "coordinates": [ -84.3031274, 33.7605772 ] } },
{ "type": "Feature", "properties": { "type": "restaurant", "name": "Mescalito's Cantina", "lat": 33.7593976, "lon": -84.3037426, "amenity": "restaurant", "cuisine": "", "leisure": "", "osm_id": 544487962 }, "geometry": { "type": "Point", "coordinates": [ -84.3037426, 33.7593976 ] } },
{ "type": "Feature", "properties": { "type": "restaurant", "name": "Adryannis", "lat": 33.7764816, "lon": -84.2959929, "amenity": "restaurant", "cuisine": "greek", "leisure": "", "osm_id": 554816651 }, "geometry": { "type": "Point", "coordinates": [ -84.2959929, 33.7764816 ] } },
{ "type": "Feature", "properties": { "type": "restaurant", "name": "Parkers on Ponce", "lat": 33.7757255, "lon": -84.2958814, "amenity": "restaurant", "cuisine": "", "leisure": "", "osm_id": 554840495 }, "geometry": { "type": "Point", "coordinates": [ -84.2958814, 33.7757255 ] } },
{ "type": "Feature", "properties": { "type": "restaurant", "name": "Unknown", "lat": 33.7754209, "lon": -84.2998941, "amenity": "restaurant", "cuisine": "regional", "leisure": "", "osm_id": 556486025 }, "geometry": { "type": "Point", "coordinates": [ -84.2998941, 33.7754209 ] } },
{ "type": "Feature", "properties": { "type": "restaurant", "name": "Mellow Mushroom", "lat": 33.7754281, "lon": -84.3009412, "amenity": "restaurant", "cuisine": "pizza", "leisure": "", "osm_id": 556612021 }, "geometry": { "type": "Point", "coordinates": [ -84.3009412, 33.7754281 ] } },
{ "type": "Feature", "properties": { "type": "restaurant", "name": "Cafe Lily", "lat": 33.7753568, "lon": -84.300229, "amenity": "restaurant", "cuisine": "mediterranean", "leisure": "", "osm_id": 556612089 }, "geometry": { "type": "Point", "coordinates": [ -84.300229, 33.7753568 ] } },
{ "type": "Feature", "properties": { "type": "restaurant", "name": "Sushi Avenue", "lat": 33.7752069, "lon": -84.3002204, "amenity": "restaurant", "cuisine": "sushi", "leisure": "", "osm_id": 556612196 }, "geometry": { "type": "Point", "coordinates": [ -84.3002204, 33.7752069 ] } },
{ "type": "Feature", "properties": { "type": "restaurant", "name": "Sapori di Napoli", "lat": 33.7734353, "lon": -84.2951031, "amenity": "restaurant", "cuisine": "italian", "leisure": "", "osm_id": 557262104 }, "geometry": { "type": "Point", "coordinates": [ -84.2951031, 33.7734353 ] } },
{ "type": "Feature", "properties": { "type": "restaurant", "name": "R. Thomas' Deluxe Grill", "lat": 33.8042852, "lon": -84.3936559, "amenity": "restaurant", "cuisine": "american", "leisure": "", "osm_id": 566468662 }, "geometry": { "type": "Point", "coordinates": [ -84.3936559, 33.8042852 ] } },
{ "type": "Feature", "properties": { "type": "restaurant", "name": "Doc Chey's Noodle House", "lat": 33.7932027, "lon": -84.3518767, "amenity": "restaurant", "cuisine": "noodle", "leisure": "", "osm_id": 567065885 }, "geometry": { "type": "Point", "coordinates": [ -84.3518767, 33.7932027 ] } },
{ "type": "Feature", "properties": { "type": "restaurant", "name": "Pomodoro", "lat": 33.792625, "lon": -84.3523488, "amenity": "restaurant", "cuisine": "italian", "leisure": "", "osm_id": 567065891 }, "geometry": { "type": "Point", "coordinates": [ -84.3523488, 33.792625 ] } },
{ "type": "Feature", "properties": { "type": "restaurant", "name": "Rosebud", "lat": 33.792468, "lon": -84.3521256, "amenity": "restaurant", "cuisine": "american", "leisure": "", "osm_id": 567065899 }, "geometry": { "type": "Point", "coordinates": [ -84.3521256, 33.792468 ] } },
{ "type": "Feature", "properties": { "type": "restaurant", "name": "Burnt Fork BBQ", "lat": 33.7782032, "lon": -84.2951234, "amenity": "restaurant", "cuisine": "barbecue", "leisure": "", "osm_id": 567189390 }, "geometry": { "type": "Point", "coordinates": [ -84.2951234, 33.7782032 ] } },
{ "type": "Feature", "properties": { "type": "restaurant", "name": "La Fonda Latina", "lat": 33.7647556, "lon": -84.3338001, "amenity": "restaurant", "cuisine": "mexican", "leisure": "", "osm_id": 568038143 }, "geometry": { "type": "Point", "coordinates": [ -84.3338001, 33.7647556 ] } },
{ "type": "Feature", "properties": { "type": "restaurant", "name": "Atkins Park", "lat": 33.8842853, "lon": -84.5151091, "amenity": "restaurant", "cuisine": "", "leisure": "", "osm_id": 616525035 }, "geometry": { "type": "Point", "coordinates": [ -84.5151091, 33.8842853 ] } },
{ "type": "Feature", "properties": { "type": "restaurant", "name": "Pizza Hut", "lat": 33.658659, "lon": -84.417911, "amenity": "restaurant", "cuisine": "pizza", "leisure": "", "osm_id": 648383758 }, "geometry": { "type": "Point", "coordinates": [ -84.417911, 33.658659 ] } },
{ "type": "Feature", "properties": { "type": "restaurant", "name": "Pit Boss BBQ", "lat": 33.6581586, "lon": -84.4164401, "amenity": "restaurant", "cuisine": "barbecue", "leisure": "", "osm_id": 648398887 }, "geometry": { "type": "Point", "coordinates": [ -84.4164401, 33.6581586 ] } },
{ "type": "Feature", "properties": { "type": "restaurant", "name": "Johnny's New York Style Pizza and Subs", "lat": 33.658709, "lon": -84.416441, "amenity": "restaurant", "cuisine": "", "leisure": "", "osm_id": 648417495 }, "geometry": { "type": "Point", "coordinates": [ -84.416441, 33.658709 ] } },
{ "type": "Feature", "properties": { "type": "restaurant", "name": "Willy's Mexicana Grill", "lat": 33.6590614, "lon": -84.4162617, "amenity": "restaurant", "cuisine": "", "leisure": "", "osm_id": 648421801 }, "geometry": { "type": "Point", "coordinates": [ -84.4162617, 33.6590614 ] } },
{ "type": "Feature", "properties": { "type": "restaurant", "name": "Grecian Gyro", "lat": 33.6589328, "lon": -84.4170151, "amenity": "restaurant", "cuisine": "", "leisure": "", "osm_id": 648444417 }, "geometry": { "type": "Point", "coordinates": [ -84.4170151, 33.6589328 ] } },
{ "type": "Feature", "properties": { "type": "restaurant", "name": "Skinny's", "lat": 33.6590727, "lon": -84.4187637, "amenity": "restaurant", "cuisine": "", "leisure": "", "osm_id": 648455349 }, "geometry": { "type": "Point", "coordinates": [ -84.4187637, 33.6590727 ] } },
{ "type": "Feature", "properties": { "type": "restaurant", "name": "Bone Garden Cantina", "lat": 33.7935744, "lon": -84.4259486, "amenity": "restaurant", "cuisine": "", "leisure": "", "osm_id": 766123320 }, "geometry": { "type": "Point", "coordinates": [ -84.4259486, 33.7935744 ] } },
{ "type": "Feature", "properties": { "type": "restaurant", "name": "Unknown", "lat": 33.8610784, "lon": -84.3298343, "amenity": "restaurant", "cuisine": "", "leisure": "", "osm_id": 779187544 }, "geometry": { "type": "Point", "coordinates": [ -84.3298343, 33.8610784 ] } },
{ "type": "Feature", "properties": { "type": "restaurant", "name": "Amalfi", "lat": 33.8438905, "lon": -84.3731771, "amenity": "restaurant", "cuisine": "", "leisure": "", "osm_id": 779212238 }, "geometry": { "type": "Point", "coordinates": [ -84.3731771, 33.8438905 ] } },
{ "type": "Feature", "properties": { "type": "restaurant", "name": "Unknown", "lat": 33.7794653, "lon": -84.410306, "amenity": "restaurant", "cuisine": "", "leisure": "", "osm_id": 780931920 }, "geometry": { "type": "Point", "coordinates": [ -84.410306, 33.7794653 ] } },
{ "type": "Feature", "properties": { "type": "restaurant", "name": "Waffle House", "lat": 33.7766833, "lon": -84.3894358, "amenity": "restaurant", "cuisine": "american", "leisure": "", "osm_id": 780970479 }, "geometry": { "type": "Point", "coordinates": [ -84.3894358, 33.7766833 ] } },
{ "type": "Feature", "properties": { "type": "restaurant", "name": "Doc Chey's Dragon Bowl", "lat": 33.7881639, "lon": -84.326622, "amenity": "restaurant", "cuisine": "noodle", "leisure": "", "osm_id": 786101171 }, "geometry": { "type": "Point", "coordinates": [ -84.326622, 33.7881639 ] } },
{ "type": "Feature", "properties": { "type": "restaurant", "name": "The Vortex Bar & Grill", "lat": 33.7662554, "lon": -84.349211, "amenity": "restaurant", "cuisine": "burger;bar_and_grill", "leisure": "", "osm_id": 786114729 }, "geometry": { "type": "Point", "coordinates": [ -84.349211, 33.7662554 ] } },
{ "type": "Feature", "properties": { "type": "restaurant", "name": "Woody's Famous Philadelphia Cheesesteaks", "lat": 33.7809609, "lon": -84.3687376, "amenity": "restaurant", "cuisine": "sandwich", "leisure": "", "osm_id": 793900339 }, "geometry": { "type": "Point", "coordinates": [ -84.3687376, 33.7809609 ] } },
{ "type": "Feature", "properties": { "type": "restaurant", "name": "Thai Diner", "lat": 33.8722043, "lon": -84.4580605, "amenity": "restaurant", "cuisine": "thai", "leisure": "", "osm_id": 820012233 }, "geometry": { "type": "Point", "coordinates": [ -84.4580605, 33.8722043 ] } },
{ "type": "Feature", "properties": { "type": "restaurant", "name": "Farm Burger", "lat": 33.7753876, "lon": -84.3028766, "amenity": "restaurant", "cuisine": "", "leisure": "", "osm_id": 843830991 }, "geometry": { "type": "Point", "coordinates": [ -84.3028766, 33.7753876 ] } },
{ "type": "Feature", "properties": { "type": "restaurant", "name": "Taqueria del Sol", "lat": 33.7759718, "lon": -84.3021554, "amenity": "restaurant", "cuisine": "", "leisure": "", "osm_id": 843860384 }, "geometry": { "type": "Point", "coordinates": [ -84.3021554, 33.7759718 ] } },
{ "type": "Feature", "properties": { "type": "restaurant", "name": "Sear", "lat": 33.76133, "lon": -84.384821, "amenity": "restaurant", "cuisine": "american", "leisure": "", "osm_id": 859651137 }, "geometry": { "type": "Point", "coordinates": [ -84.384821, 33.76133 ] } },
{ "type": "Feature", "properties": { "type": "restaurant", "name": "Atlanta Chophouse", "lat": 33.6409591, "lon": -84.4445676, "amenity": "restaurant", "cuisine": "", "leisure": "", "osm_id": 860037795 }, "geometry": { "type": "Point", "coordinates": [ -84.4445676, 33.6409591 ] } },
{ "type": "Feature", "properties": { "type": "restaurant", "name": "American Deli", "lat": 33.7754375, "lon": -84.2944583, "amenity": "restaurant", "cuisine": "sandwich", "leisure": "", "osm_id": 870667812 }, "geometry": { "type": "Point", "coordinates": [ -84.2944583, 33.7754375 ] } },
{ "type": "Feature", "properties": { "type": "restaurant", "name": "Loco's", "lat": 33.8406161, "lon": -84.3756209, "amenity": "restaurant", "cuisine": "", "leisure": "", "osm_id": 902107263 }, "geometry": { "type": "Point", "coordinates": [ -84.3756209, 33.8406161 ] } },
{ "type": "Feature", "properties": { "type": "restaurant", "name": "Waffle House", "lat": 33.8725753, "lon": -84.528932, "amenity": "restaurant", "cuisine": "american", "leisure": "", "osm_id": 945618070 }, "geometry": { "type": "Point", "coordinates": [ -84.528932, 33.8725753 ] } },
{ "type": "Feature", "properties": { "type": "restaurant", "name": "Botica", "lat": 33.8053118, "lon": -84.3941692, "amenity": "restaurant", "cuisine": "mexican;spanish;mediterranean", "leisure": "", "osm_id": 1004445594 }, "geometry": { "type": "Point", "coordinates": [ -84.3941692, 33.8053118 ] } },
{ "type": "Feature", "properties": { "type": "restaurant", "name": "Melton's App & Tap", "lat": 33.794025, "lon": -84.2909182, "amenity": "restaurant", "cuisine": "", "leisure": "", "osm_id": 1014124990 }, "geometry": { "type": "Point", "coordinates": [ -84.2909182, 33.794025 ] } },
{ "type": "Feature", "properties": { "type": "restaurant", "name": "Blaze Pizza", "lat": 33.7899549, "lon": -84.3058637, "amenity": "restaurant", "cuisine": "pizza", "leisure": "", "osm_id": 1033057312 }, "geometry": { "type": "Point", "coordinates": [ -84.3058637, 33.7899549 ] } },
{ "type": "Feature", "properties": { "type": "restaurant", "name": "Ru San's", "lat": 33.7588305, "lon": -84.3488915, "amenity": "restaurant", "cuisine": "", "leisure": "", "osm_id": 1088565361 }, "geometry": { "type": "Point", "coordinates": [ -84.3488915, 33.7588305 ] } },
{ "type": "Feature", "properties": { "type": "restaurant", "name": "Figo", "lat": 33.7586075, "lon": -84.3489666, "amenity": "restaurant", "cuisine": "", "leisure": "", "osm_id": 1088565440 }, "geometry": { "type": "Point", "coordinates": [ -84.3489666, 33.7586075 ] } },
{ "type": "Feature", "properties": { "type": "restaurant", "name": "Savage Pizza", "lat": 33.7672436, "lon": -84.3493661, "amenity": "restaurant", "cuisine": "pizza", "leisure": "", "osm_id": 1088818005 }, "geometry": { "type": "Point", "coordinates": [ -84.3493661, 33.7672436 ] } },
{ "type": "Feature", "properties": { "type": "restaurant", "name": "Urban Pie", "lat": 33.7513294, "lon": -84.3218669, "amenity": "restaurant", "cuisine": "pizza", "leisure": "", "osm_id": 1105747333 }, "geometry": { "type": "Point", "coordinates": [ -84.3218669, 33.7513294 ] } },
{ "type": "Feature", "properties": { "type": "restaurant", "name": "Mangos Caribbean", "lat": 33.7556878, "lon": -84.3817848, "amenity": "restaurant", "cuisine": "caribbean", "leisure": "", "osm_id": 1127168751 }, "geometry": { "type": "Point", "coordinates": [ -84.3817848, 33.7556878 ] } },
{ "type": "Feature", "properties": { "type": "restaurant", "name": "Buns and Shakes", "lat": 33.7556908, "lon": -84.381305, "amenity": "restaurant", "cuisine": "", "leisure": "", "osm_id": 1127168752 }, "geometry": { "type": "Point", "coordinates": [ -84.381305, 33.7556908 ] } },
{ "type": "Feature", "properties": { "type": "restaurant", "name": "Wok and Roll", "lat": 33.755637, "lon": -84.3795095, "amenity": "restaurant", "cuisine": "", "leisure": "", "osm_id": 1127215868 }, "geometry": { "type": "Point", "coordinates": [ -84.3795095, 33.755637 ] } },
{ "type": "Feature", "properties": { "type": "restaurant", "name": "Holy Taco", "lat": 33.7403114, "lon": -84.3446271, "amenity": "restaurant", "cuisine": "mexican", "leisure": "", "osm_id": 1134019026 }, "geometry": { "type": "Point", "coordinates": [ -84.3446271, 33.7403114 ] } },
{ "type": "Feature", "properties": { "type": "restaurant", "name": "Fresh2Order", "lat": 33.775362, "lon": -84.2947595, "amenity": "restaurant", "cuisine": "", "leisure": "", "osm_id": 1153668601 }, "geometry": { "type": "Point", "coordinates": [ -84.2947595, 33.775362 ] } },
{ "type": "Feature", "properties": { "type": "restaurant", "name": "Spanish Harlem", "lat": 33.7545522, "lon": -84.3791899, "amenity": "restaurant", "cuisine": "", "leisure": "", "osm_id": 1179861864 }, "geometry": { "type": "Point", "coordinates": [ -84.3791899, 33.7545522 ] } },
{ "type": "Feature", "properties": { "type": "restaurant", "name": "Luna Nueva", "lat": 33.7651102, "lon": -84.3497971, "amenity": "restaurant", "cuisine": "mexican;bar_and_grill", "leisure": "", "osm_id": 1237972381 }, "geometry": { "type": "Point", "coordinates": [ -84.3497971, 33.7651102 ] } },
{ "type": "Feature", "properties": { "type": "restaurant", "name": "Niramish", "lat": 33.7648928, "lon": -84.3500519, "amenity": "restaurant", "cuisine": "indian", "leisure": "", "osm_id": 1237985316 }, "geometry": { "type": "Point", "coordinates": [ -84.3500519, 33.7648928 ] } },
{ "type": "Feature", "properties": { "type": "restaurant", "name": "Sweet Lime", "lat": 33.7645862, "lon": -84.3505078, "amenity": "restaurant", "cuisine": "thai;sushi", "leisure": "", "osm_id": 1237985322 }, "geometry": { "type": "Point", "coordinates": [ -84.3505078, 33.7645862 ] } },
{ "type": "Feature", "properties": { "type": "restaurant", "name": "El Bandito Mexican Grill", "lat": 33.7632796, "lon": -84.3515271, "amenity": "restaurant", "cuisine": "mexican", "leisure": "", "osm_id": 1237985326 }, "geometry": { "type": "Point", "coordinates": [ -84.3515271, 33.7632796 ] } },
{ "type": "Feature", "properties": { "type": "restaurant", "name": "El Myr", "lat": 33.7636114, "lon": -84.3513187, "amenity": "restaurant", "cuisine": "burrito", "leisure": "", "osm_id": 1237985328 }, "geometry": { "type": "Point", "coordinates": [ -84.3513187, 33.7636114 ] } },
{ "type": "Feature", "properties": { "type": "restaurant", "name": "Ali Baba Mediterranean", "lat": 33.7637965, "lon": -84.3510303, "amenity": "restaurant", "cuisine": "turkish;mediterranean", "leisure": "", "osm_id": 1237999100 }, "geometry": { "type": "Point", "coordinates": [ -84.3510303, 33.7637965 ] } },
{ "type": "Feature", "properties": { "type": "restaurant", "name": "Treehouse Restaurant and Pub", "lat": 33.8187767, "lon": -84.3811874, "amenity": "restaurant", "cuisine": "american", "leisure": "", "osm_id": 1252492781 }, "geometry": { "type": "Point", "coordinates": [ -84.3811874, 33.8187767 ] } },
{ "type": "Feature", "properties": { "type": "restaurant", "name": "Paul's Restaurant", "lat": 33.8179615, "lon": -84.3812037, "amenity": "restaurant", "cuisine": "regional", "leisure": "", "osm_id": 1252498884 }, "geometry": { "type": "Point", "coordinates": [ -84.3812037, 33.8179615 ] } },
{ "type": "Feature", "properties": { "type": "restaurant", "name": "EAV Thai & Sushi", "lat": 33.7411574, "lon": -84.3466799, "amenity": "restaurant", "cuisine": "sushi", "leisure": "", "osm_id": 1253884740 }, "geometry": { "type": "Point", "coordinates": [ -84.3466799, 33.7411574 ] } },
{ "type": "Feature", "properties": { "type": "restaurant", "name": "KPot Korean BBQ & Hot Pot", "lat": 33.8024099, "lon": -84.4127484, "amenity": "restaurant", "cuisine": "korean", "leisure": "", "osm_id": 1259091155 }, "geometry": { "type": "Point", "coordinates": [ -84.4127484, 33.8024099 ] } },
{ "type": "Feature", "properties": { "type": "restaurant", "name": "Yoi Yoi Japanese Steakhouse & Sushi", "lat": 33.810301, "lon": -84.4160536, "amenity": "restaurant", "cuisine": "japanese", "leisure": "", "osm_id": 1259638878 }, "geometry": { "type": "Point", "coordinates": [ -84.4160536, 33.810301 ] } },
{ "type": "Feature", "properties": { "type": "restaurant", "name": "Pero's Pizza & Pasta", "lat": 33.8509061, "lon": -84.4291581, "amenity": "restaurant", "cuisine": "pizza", "leisure": "", "osm_id": 1273536527 }, "geometry": { "type": "Point", "coordinates": [ -84.4291581, 33.8509061 ] } },
{ "type": "Feature", "properties": { "type": "restaurant", "name": "Apres Diem", "lat": 33.7791816, "lon": -84.3671568, "amenity": "restaurant", "cuisine": "european", "leisure": "", "osm_id": 1290222141 }, "geometry": { "type": "Point", "coordinates": [ -84.3671568, 33.7791816 ] } },
{ "type": "Feature", "properties": { "type": "restaurant", "name": "Umma Kitchen", "lat": 33.7803773, "lon": -84.3687017, "amenity": "restaurant", "cuisine": "korean", "leisure": "", "osm_id": 1290222164 }, "geometry": { "type": "Point", "coordinates": [ -84.3687017, 33.7803773 ] } },
{ "type": "Feature", "properties": { "type": "restaurant", "name": "Alici", "lat": 33.7802641, "lon": -84.3680522, "amenity": "restaurant", "cuisine": "seafood;mediterranean", "leisure": "", "osm_id": 1290222170 }, "geometry": { "type": "Point", "coordinates": [ -84.3680522, 33.7802641 ] } },
{ "type": "Feature", "properties": { "type": "restaurant", "name": "Mellow Mushroom", "lat": 33.7802888, "lon": -84.3685218, "amenity": "restaurant", "cuisine": "pizza", "leisure": "", "osm_id": 1290222186 }, "geometry": { "type": "Point", "coordinates": [ -84.3685218, 33.7802888 ] } },
{ "type": "Feature", "properties": { "type": "restaurant", "name": "Farm Burger", "lat": 33.7821169, "lon": -84.353883, "amenity": "restaurant", "cuisine": "burger", "leisure": "", "osm_id": 1291285067 }, "geometry": { "type": "Point", "coordinates": [ -84.353883, 33.7821169 ] } },
{ "type": "Feature", "properties": { "type": "restaurant", "name": "La Tavola", "lat": 33.7824468, "lon": -84.3549103, "amenity": "restaurant", "cuisine": "italian", "leisure": "", "osm_id": 1291285069 }, "geometry": { "type": "Point", "coordinates": [ -84.3549103, 33.7824468 ] } },
{ "type": "Feature", "properties": { "type": "restaurant", "name": "Dekalb Ave", "lat": 33.7609981, "lon": -84.3474244, "amenity": "restaurant", "cuisine": "barbecue", "leisure": "", "osm_id": 1387066302 }, "geometry": { "type": "Point", "coordinates": [ -84.3474244, 33.7609981 ] } },
{ "type": "Feature", "properties": { "type": "restaurant", "name": "Unknown", "lat": 33.7665276, "lon": -84.3489024, "amenity": "restaurant", "cuisine": "indian", "leisure": "", "osm_id": 1387069338 }, "geometry": { "type": "Point", "coordinates": [ -84.3489024, 33.7665276 ] } },
{ "type": "Feature", "properties": { "type": "restaurant", "name": "The Deer and The Dove", "lat": 33.7744255, "lon": -84.2951601, "amenity": "restaurant", "cuisine": "", "leisure": "", "osm_id": 1400232345 }, "geometry": { "type": "Point", "coordinates": [ -84.2951601, 33.7744255 ] } },
{ "type": "Feature", "properties": { "type": "restaurant", "name": "Home Bar", "lat": 33.7513898, "lon": -84.3224426, "amenity": "restaurant", "cuisine": "american", "leisure": "", "osm_id": 1430289383 }, "geometry": { "type": "Point", "coordinates": [ -84.3224426, 33.7513898 ] } },
{ "type": "Feature", "properties": { "type": "restaurant", "name": "The Argonaut", "lat": 33.7516394, "lon": -84.3233689, "amenity": "restaurant", "cuisine": "seafood", "leisure": "", "osm_id": 1430289386 }, "geometry": { "type": "Point", "coordinates": [ -84.3233689, 33.7516394 ] } },
{ "type": "Feature", "properties": { "type": "restaurant", "name": "No Mas Cantina", "lat": 33.7497558, "lon": -84.4008807, "amenity": "restaurant", "cuisine": "mexican", "leisure": "", "osm_id": 1573256268 }, "geometry": { "type": "Point", "coordinates": [ -84.4008807, 33.7497558 ] } },
{ "type": "Feature", "properties": { "type": "restaurant", "name": "Pizza Hut", "lat": 33.7713964, "lon": -84.3719343, "amenity": "restaurant", "cuisine": "pizza", "leisure": "", "osm_id": 1573466987 }, "geometry": { "type": "Point", "coordinates": [ -84.3719343, 33.7713964 ] } },
{ "type": "Feature", "properties": { "type": "restaurant", "name": "J.R. Cricket's", "lat": 33.7710404, "lon": -84.3831791, "amenity": "restaurant", "cuisine": "american;wings", "leisure": "", "osm_id": 1573466993 }, "geometry": { "type": "Point", "coordinates": [ -84.3831791, 33.7710404 ] } },
{ "type": "Feature", "properties": { "type": "restaurant", "name": "Benihana", "lat": 33.8127925, "lon": -84.3916046, "amenity": "restaurant", "cuisine": "japanese;teppanyaki;steak", "leisure": "", "osm_id": 1579665765 }, "geometry": { "type": "Point", "coordinates": [ -84.3916046, 33.8127925 ] } },
{ "type": "Feature", "properties": { "type": "restaurant", "name": "Waffle House", "lat": 33.8611449, "lon": -84.3390065, "amenity": "restaurant", "cuisine": "american", "leisure": "", "osm_id": 1579763191 }, "geometry": { "type": "Point", "coordinates": [ -84.3390065, 33.8611449 ] } },
{ "type": "Feature", "properties": { "type": "restaurant", "name": "Nikola's", "lat": 33.8154476, "lon": -84.3361654, "amenity": "restaurant", "cuisine": "", "leisure": "", "osm_id": 1580487216 }, "geometry": { "type": "Point", "coordinates": [ -84.3361654, 33.8154476 ] } },
{ "type": "Feature", "properties": { "type": "restaurant", "name": "El Potro", "lat": 33.8452371, "lon": -84.326728, "amenity": "restaurant", "cuisine": "mexican", "leisure": "", "osm_id": 1580531365 }, "geometry": { "type": "Point", "coordinates": [ -84.326728, 33.8452371 ] } },
{ "type": "Feature", "properties": { "type": "restaurant", "name": "Pizza Hut", "lat": 33.8420515, "lon": -84.3289744, "amenity": "restaurant", "cuisine": "pizza", "leisure": "", "osm_id": 1580531372 }, "geometry": { "type": "Point", "coordinates": [ -84.3289744, 33.8420515 ] } },
{ "type": "Feature", "properties": { "type": "restaurant", "name": "Pancho's Mexican Restaurant & Cantina", "lat": 33.8262762, "lon": -84.348008, "amenity": "restaurant", "cuisine": "mexican", "leisure": "", "osm_id": 1580540014 }, "geometry": { "type": "Point", "coordinates": [ -84.348008, 33.8262762 ] } },
{ "type": "Feature", "properties": { "type": "restaurant", "name": "Willy's Mexican Grill", "lat": 33.7839217, "lon": -84.3787359, "amenity": "restaurant", "cuisine": "mexican", "leisure": "", "osm_id": 1595679215 }, "geometry": { "type": "Point", "coordinates": [ -84.3787359, 33.7839217 ] } },
{ "type": "Feature", "properties": { "type": "restaurant", "name": "Grant Central Pizza East", "lat": 33.7400291, "lon": -84.3456828, "amenity": "restaurant", "cuisine": "pizza", "leisure": "", "osm_id": 1667797713 }, "geometry": { "type": "Point", "coordinates": [ -84.3456828, 33.7400291 ] } },
{ "type": "Feature", "properties": { "type": "restaurant", "name": "Gekko Sushi and Lounge", "lat": 33.7713105, "lon": -84.3678707, "amenity": "restaurant", "cuisine": "sushi", "leisure": "", "osm_id": 1701892943 }, "geometry": { "type": "Point", "coordinates": [ -84.3678707, 33.7713105 ] } },
{ "type": "Feature", "properties": { "type": "restaurant", "name": "Big Boss Chinese", "lat": 33.781285, "lon": -84.3901179, "amenity": "restaurant", "cuisine": "chinese", "leisure": "", "osm_id": 1712783070 }, "geometry": { "type": "Point", "coordinates": [ -84.3901179, 33.781285 ] } },
{ "type": "Feature", "properties": { "type": "restaurant", "name": "5 Seasons", "lat": 33.7788823, "lon": -84.4103302, "amenity": "restaurant", "cuisine": "", "leisure": "", "osm_id": 1740918262 }, "geometry": { "type": "Point", "coordinates": [ -84.4103302, 33.7788823 ] } },
{ "type": "Feature", "properties": { "type": "restaurant", "name": "Q's Restaurant", "lat": 33.6787676, "lon": -84.4410178, "amenity": "restaurant", "cuisine": "", "leisure": "", "osm_id": 1744225876 }, "geometry": { "type": "Point", "coordinates": [ -84.4410178, 33.6787676 ] } },
{ "type": "Feature", "properties": { "type": "restaurant", "name": "Main Street BBQ", "lat": 33.6809103, "lon": -84.4413182, "amenity": "restaurant", "cuisine": "", "leisure": "", "osm_id": 1744229876 }, "geometry": { "type": "Point", "coordinates": [ -84.4413182, 33.6809103 ] } },
{ "type": "Feature", "properties": { "type": "restaurant", "name": "Ziba's", "lat": 33.7392269, "lon": -84.367998, "amenity": "restaurant", "cuisine": "american", "leisure": "", "osm_id": 1748937752 }, "geometry": { "type": "Point", "coordinates": [ -84.367998, 33.7392269 ] } },
{ "type": "Feature", "properties": { "type": "restaurant", "name": "Matador Cantina", "lat": 33.7404492, "lon": -84.3576367, "amenity": "restaurant", "cuisine": "mexican", "leisure": "", "osm_id": 1748940337 }, "geometry": { "type": "Point", "coordinates": [ -84.3576367, 33.7404492 ] } },
{ "type": "Feature", "properties": { "type": "restaurant", "name": "Vickery's", "lat": 33.7404514, "lon": -84.3574033, "amenity": "restaurant", "cuisine": "american", "leisure": "", "osm_id": 1748940945 }, "geometry": { "type": "Point", "coordinates": [ -84.3574033, 33.7404514 ] } },
{ "type": "Feature", "properties": { "type": "restaurant", "name": "Yogli Mogli", "lat": 33.788566, "lon": -84.3264918, "amenity": "restaurant", "cuisine": "ice_cream", "leisure": "", "osm_id": 1778992146 }, "geometry": { "type": "Point", "coordinates": [ -84.3264918, 33.788566 ] } },
{ "type": "Feature", "properties": { "type": "restaurant", "name": "La Parilla", "lat": 33.8033837, "lon": -84.4125407, "amenity": "restaurant", "cuisine": "mexican", "leisure": "", "osm_id": 1855872439 }, "geometry": { "type": "Point", "coordinates": [ -84.4125407, 33.8033837 ] } },
{ "type": "Feature", "properties": { "type": "restaurant", "name": "Mediterranean Grill", "lat": 33.7812614, "lon": -84.3683173, "amenity": "restaurant", "cuisine": "kebab;mediterranean;greek", "leisure": "", "osm_id": 1953501533 }, "geometry": { "type": "Point", "coordinates": [ -84.3683173, 33.7812614 ] } },
{ "type": "Feature", "properties": { "type": "restaurant", "name": "Q Korean BBQ Revolving Sushi", "lat": 33.7926557, "lon": -84.3050562, "amenity": "restaurant", "cuisine": "indian", "leisure": "", "osm_id": 2015638323 }, "geometry": { "type": "Point", "coordinates": [ -84.3050562, 33.7926557 ] } },
{ "type": "Feature", "properties": { "type": "restaurant", "name": "The Po'Boy Shop", "lat": 33.7928831, "lon": -84.3050133, "amenity": "restaurant", "cuisine": "", "leisure": "", "osm_id": 2015638365 }, "geometry": { "type": "Point", "coordinates": [ -84.3050133, 33.7928831 ] } },
{ "type": "Feature", "properties": { "type": "restaurant", "name": "Mela Restaurant & Lounge", "lat": 33.7924327, "lon": -84.3050749, "amenity": "restaurant", "cuisine": "", "leisure": "", "osm_id": 2015638368 }, "geometry": { "type": "Point", "coordinates": [ -84.3050749, 33.7924327 ] } },
{ "type": "Feature", "properties": { "type": "restaurant", "name": "Community Q BBQ", "lat": 33.7925376, "lon": -84.3050509, "amenity": "restaurant", "cuisine": "", "leisure": "", "osm_id": 2015638380 }, "geometry": { "type": "Point", "coordinates": [ -84.3050509, 33.7925376 ] } },
{ "type": "Feature", "properties": { "type": "restaurant", "name": "Hong Kong Buffett", "lat": 33.7580206, "lon": -84.3896289, "amenity": "restaurant", "cuisine": "chinese", "leisure": "", "osm_id": 2033588226 }, "geometry": { "type": "Point", "coordinates": [ -84.3896289, 33.7580206 ] } },
{ "type": "Feature", "properties": { "type": "restaurant", "name": "Thrive Restaurant & Bar", "lat": 33.7569676, "lon": -84.3923429, "amenity": "restaurant", "cuisine": "american;sushi;fusion", "leisure": "", "osm_id": 2035267511 }, "geometry": { "type": "Point", "coordinates": [ -84.3923429, 33.7569676 ] } },
{ "type": "Feature", "properties": { "type": "restaurant", "name": "Rosa", "lat": 33.787164, "lon": -84.355711, "amenity": "restaurant", "cuisine": "mexican", "leisure": "", "osm_id": 2184805458 }, "geometry": { "type": "Point", "coordinates": [ -84.355711, 33.787164 ] } },
{ "type": "Feature", "properties": { "type": "restaurant", "name": "Mali", "lat": 33.7873802, "lon": -84.3557057, "amenity": "restaurant", "cuisine": "thai;sushi", "leisure": "", "osm_id": 2184808410 }, "geometry": { "type": "Point", "coordinates": [ -84.3557057, 33.7873802 ] } },
{ "type": "Feature", "properties": { "type": "restaurant", "name": "George's", "lat": 33.7830231, "lon": -84.3542345, "amenity": "restaurant", "cuisine": "burger", "leisure": "", "osm_id": 2184844380 }, "geometry": { "type": "Point", "coordinates": [ -84.3542345, 33.7830231 ] } },
{ "type": "Feature", "properties": { "type": "restaurant", "name": "Murphy's", "lat": 33.7820577, "lon": -84.3548754, "amenity": "restaurant", "cuisine": "american", "leisure": "", "osm_id": 2184846433 }, "geometry": { "type": "Point", "coordinates": [ -84.3548754, 33.7820577 ] } },
{ "type": "Feature", "properties": { "type": "restaurant", "name": "Ela", "lat": 33.7868731, "lon": -84.3554562, "amenity": "restaurant", "cuisine": "mediterranean", "leisure": "", "osm_id": 2184849461 }, "geometry": { "type": "Point", "coordinates": [ -84.3554562, 33.7868731 ] } },
{ "type": "Feature", "properties": { "type": "restaurant", "name": "Highland Tap", "lat": 33.7825288, "lon": -84.3545335, "amenity": "restaurant", "cuisine": "steak_house", "leisure": "", "osm_id": 2184853747 }, "geometry": { "type": "Point", "coordinates": [ -84.3545335, 33.7825288 ] } },
{ "type": "Feature", "properties": { "type": "restaurant", "name": "Bar.bacoa", "lat": 33.7825069, "lon": -84.3546814, "amenity": "restaurant", "cuisine": "spanish", "leisure": "", "osm_id": 2184853755 }, "geometry": { "type": "Point", "coordinates": [ -84.3546814, 33.7825069 ] } },
{ "type": "Feature", "properties": { "type": "restaurant", "name": "Fontaine's", "lat": 33.7826034, "lon": -84.3545294, "amenity": "restaurant", "cuisine": "seafood", "leisure": "", "osm_id": 2184855561 }, "geometry": { "type": "Point", "coordinates": [ -84.3545294, 33.7826034 ] } },
{ "type": "Feature", "properties": { "type": "restaurant", "name": "Illegal Food", "lat": 33.7768443, "lon": -84.3530763, "amenity": "restaurant", "cuisine": "", "leisure": "", "osm_id": 2184961240 }, "geometry": { "type": "Point", "coordinates": [ -84.3530763, 33.7768443 ] } },
{ "type": "Feature", "properties": { "type": "restaurant", "name": "Atkin's Park", "lat": 33.776144, "lon": -84.35268, "amenity": "restaurant", "cuisine": "american", "leisure": "", "osm_id": 2184964312 }, "geometry": { "type": "Point", "coordinates": [ -84.35268, 33.776144 ] } },
{ "type": "Feature", "properties": { "type": "restaurant", "name": "Surin", "lat": 33.7765759, "lon": -84.352536, "amenity": "restaurant", "cuisine": "thai", "leisure": "", "osm_id": 2184964331 }, "geometry": { "type": "Point", "coordinates": [ -84.352536, 33.7765759 ] } },
{ "type": "Feature", "properties": { "type": "restaurant", "name": "Unknown", "lat": 33.7765088, "lon": -84.3530717, "amenity": "restaurant", "cuisine": "thai", "leisure": "", "osm_id": 2184964725 }, "geometry": { "type": "Point", "coordinates": [ -84.3530717, 33.7765088 ] } },
{ "type": "Feature", "properties": { "type": "restaurant", "name": "Ocean Wave Sushi By Harry and Sons", "lat": 33.7769211, "lon": -84.3526587, "amenity": "restaurant", "cuisine": "sushi", "leisure": "", "osm_id": 2184965596 }, "geometry": { "type": "Point", "coordinates": [ -84.3526587, 33.7769211 ] } },
{ "type": "Feature", "properties": { "type": "restaurant", "name": "Osteria 832", "lat": 33.7772288, "lon": -84.3528518, "amenity": "restaurant", "cuisine": "italian", "leisure": "", "osm_id": 2184968892 }, "geometry": { "type": "Point", "coordinates": [ -84.3528518, 33.7772288 ] } },
{ "type": "Feature", "properties": { "type": "restaurant", "name": "Papi's", "lat": 33.7728047, "lon": -84.3803686, "amenity": "restaurant", "cuisine": "cuban", "leisure": "", "osm_id": 2186534351 }, "geometry": { "type": "Point", "coordinates": [ -84.3803686, 33.7728047 ] } },
{ "type": "Feature", "properties": { "type": "restaurant", "name": "Marlow's Tavern", "lat": 33.8011797, "lon": -84.3281399, "amenity": "restaurant", "cuisine": "american", "leisure": "", "osm_id": 2189982578 }, "geometry": { "type": "Point", "coordinates": [ -84.3281399, 33.8011797 ] } },
{ "type": "Feature", "properties": { "type": "restaurant", "name": "Tin Lizzy's", "lat": 33.801147, "lon": -84.3278077, "amenity": "restaurant", "cuisine": "mexican", "leisure": "", "osm_id": 2189996987 }, "geometry": { "type": "Point", "coordinates": [ -84.3278077, 33.801147 ] } },
{ "type": "Feature", "properties": { "type": "restaurant", "name": "Wisteria", "lat": 33.7667945, "lon": -84.3528518, "amenity": "restaurant", "cuisine": "american", "leisure": "", "osm_id": 2210349281 }, "geometry": { "type": "Point", "coordinates": [ -84.3528518, 33.7667945 ] } },
{ "type": "Feature", "properties": { "type": "restaurant", "name": "Shorty's", "lat": 33.8178332, "lon": -84.3101804, "amenity": "restaurant", "cuisine": "pizza", "leisure": "", "osm_id": 2210572246 }, "geometry": { "type": "Point", "coordinates": [ -84.3101804, 33.8178332 ] } },
{ "type": "Feature", "properties": { "type": "restaurant", "name": "La Parilla", "lat": 33.8148066, "lon": -84.3108678, "amenity": "restaurant", "cuisine": "mexican", "leisure": "", "osm_id": 2210572247 }, "geometry": { "type": "Point", "coordinates": [ -84.3108678, 33.8148066 ] } },
{ "type": "Feature", "properties": { "type": "restaurant", "name": "Rathbun's Steak", "lat": 33.7592068, "lon": -84.3638966, "amenity": "restaurant", "cuisine": "steak_house", "leisure": "", "osm_id": 2210728554 }, "geometry": { "type": "Point", "coordinates": [ -84.3638966, 33.7592068 ] } },
{ "type": "Feature", "properties": { "type": "restaurant", "name": "Two Urban Licks", "lat": 33.7684989, "lon": -84.3612992, "amenity": "restaurant", "cuisine": "american", "leisure": "", "osm_id": 2216914846 }, "geometry": { "type": "Point", "coordinates": [ -84.3612992, 33.7684989 ] } },
{ "type": "Feature", "properties": { "type": "restaurant", "name": "Real Chow Baby", "lat": 33.7740945, "lon": -84.3617849, "amenity": "restaurant", "cuisine": "chinese", "leisure": "", "osm_id": 2217172630 }, "geometry": { "type": "Point", "coordinates": [ -84.3617849, 33.7740945 ] } },
{ "type": "Feature", "properties": { "type": "restaurant", "name": "Romeo's NY", "lat": 33.7886149, "lon": -84.3265555, "amenity": "restaurant", "cuisine": "pizza", "leisure": "", "osm_id": 2219275915 }, "geometry": { "type": "Point", "coordinates": [ -84.3265555, 33.7886149 ] } },
{ "type": "Feature", "properties": { "type": "restaurant", "name": "Dave's Cosmic Subs", "lat": 33.7879172, "lon": -84.3276069, "amenity": "restaurant", "cuisine": "sandwich", "leisure": "", "osm_id": 2219282265 }, "geometry": { "type": "Point", "coordinates": [ -84.3276069, 33.7879172 ] } },
{ "type": "Feature", "properties": { "type": "restaurant", "name": "Falafel King", "lat": 33.7884331, "lon": -84.3263646, "amenity": "restaurant", "cuisine": "kebab", "leisure": "", "osm_id": 2219282266 }, "geometry": { "type": "Point", "coordinates": [ -84.3263646, 33.7884331 ] } },
{ "type": "Feature", "properties": { "type": "restaurant", "name": "Emmy's Squared Pizza", "lat": 33.7403577, "lon": -84.3583541, "amenity": "restaurant", "cuisine": "", "leisure": "", "osm_id": 2262805491 }, "geometry": { "type": "Point", "coordinates": [ -84.3583541, 33.7403577 ] } },
{ "type": "Feature", "properties": { "type": "restaurant", "name": "Little Azios", "lat": 33.7339183, "lon": -84.3494935, "amenity": "restaurant", "cuisine": "pizza", "leisure": "", "osm_id": 2262813906 }, "geometry": { "type": "Point", "coordinates": [ -84.3494935, 33.7339183 ] } },
{ "type": "Feature", "properties": { "type": "restaurant", "name": "Bell Street Burritos", "lat": 33.7558251, "lon": -84.3651117, "amenity": "restaurant", "cuisine": "", "leisure": "", "osm_id": 2268953667 }, "geometry": { "type": "Point", "coordinates": [ -84.3651117, 33.7558251 ] } },
{ "type": "Feature", "properties": { "type": "restaurant", "name": "Jason's Deli", "lat": 33.7819402, "lon": -84.379972, "amenity": "restaurant", "cuisine": "sandwich", "leisure": "", "osm_id": 2277881897 }, "geometry": { "type": "Point", "coordinates": [ -84.379972, 33.7819402 ] } },
{ "type": "Feature", "properties": { "type": "restaurant", "name": "Flying Biscuit", "lat": 33.7819212, "lon": -84.3802778, "amenity": "restaurant", "cuisine": "american;breakfast", "leisure": "", "osm_id": 2277881898 }, "geometry": { "type": "Point", "coordinates": [ -84.3802778, 33.7819212 ] } },
{ "type": "Feature", "properties": { "type": "restaurant", "name": "Unknown", "lat": 33.7816725, "lon": -84.3801261, "amenity": "restaurant", "cuisine": "", "leisure": "", "osm_id": 2277885175 }, "geometry": { "type": "Point", "coordinates": [ -84.3801261, 33.7816725 ] } },
{ "type": "Feature", "properties": { "type": "restaurant", "name": "Souper Jenny Westside", "lat": 33.78878, "lon": -84.422915, "amenity": "restaurant", "cuisine": "regional", "leisure": "", "osm_id": 2280263719 }, "geometry": { "type": "Point", "coordinates": [ -84.422915, 33.78878 ] } },
{ "type": "Feature", "properties": { "type": "restaurant", "name": "Thaicoon", "lat": 33.8044492, "lon": -84.3356162, "amenity": "restaurant", "cuisine": "sushi", "leisure": "", "osm_id": 2283444595 }, "geometry": { "type": "Point", "coordinates": [ -84.3356162, 33.8044492 ] } },
{ "type": "Feature", "properties": { "type": "restaurant", "name": "Cafe Bombay Indian Bistro", "lat": 33.8284382, "lon": -84.3269925, "amenity": "restaurant", "cuisine": "indian", "leisure": "", "osm_id": 2283463185 }, "geometry": { "type": "Point", "coordinates": [ -84.3269925, 33.8284382 ] } },
{ "type": "Feature", "properties": { "type": "restaurant", "name": "Red Pepper Taqueria", "lat": 33.8163506, "lon": -84.3343277, "amenity": "restaurant", "cuisine": "mexican", "leisure": "", "osm_id": 2284798528 }, "geometry": { "type": "Point", "coordinates": [ -84.3343277, 33.8163506 ] } },
{ "type": "Feature", "properties": { "type": "restaurant", "name": "Serpas", "lat": 33.7574066, "lon": -84.367366, "amenity": "restaurant", "cuisine": "american", "leisure": "", "osm_id": 2288044083 }, "geometry": { "type": "Point", "coordinates": [ -84.367366, 33.7574066 ] } },
{ "type": "Feature", "properties": { "type": "restaurant", "name": "Carrol Street Cafe", "lat": 33.7489743, "lon": -84.3679405, "amenity": "restaurant", "cuisine": "american", "leisure": "", "osm_id": 2288049569 }, "geometry": { "type": "Point", "coordinates": [ -84.3679405, 33.7489743 ] } },
{ "type": "Feature", "properties": { "type": "restaurant", "name": "Bantam and Biddy", "lat": 33.798267, "lon": -84.370892, "amenity": "restaurant", "cuisine": "", "leisure": "", "osm_id": 2351693149 }, "geometry": { "type": "Point", "coordinates": [ -84.370892, 33.798267 ] } },
{ "type": "Feature", "properties": { "type": "restaurant", "name": "Silver Skillet", "lat": 33.7861987, "lon": -84.3942995, "amenity": "restaurant", "cuisine": "american", "leisure": "", "osm_id": 2390850327 }, "geometry": { "type": "Point", "coordinates": [ -84.3942995, 33.7861987 ] } },
{ "type": "Feature", "properties": { "type": "restaurant", "name": "Toast on Lenox", "lat": 33.7863234, "lon": -84.3985922, "amenity": "restaurant", "cuisine": "", "leisure": "", "osm_id": 2390853392 }, "geometry": { "type": "Point", "coordinates": [ -84.3985922, 33.7863234 ] } },
{ "type": "Feature", "properties": { "type": "restaurant", "name": "Rocky Mountain Pizza", "lat": 33.7821239, "lon": -84.4043525, "amenity": "restaurant", "cuisine": "pizza", "leisure": "", "osm_id": 2390865214 }, "geometry": { "type": "Point", "coordinates": [ -84.4043525, 33.7821239 ] } },
{ "type": "Feature", "properties": { "type": "restaurant", "name": "Gia's", "lat": 33.7849048, "lon": -84.4058271, "amenity": "restaurant", "cuisine": "italian", "leisure": "", "osm_id": 2390865217 }, "geometry": { "type": "Point", "coordinates": [ -84.4058271, 33.7849048 ] } },
{ "type": "Feature", "properties": { "type": "restaurant", "name": "Unknown", "lat": 33.782589, "lon": -84.4118303, "amenity": "restaurant", "cuisine": "pizza", "leisure": "", "osm_id": 2390865219 }, "geometry": { "type": "Point", "coordinates": [ -84.4118303, 33.782589 ] } },
{ "type": "Feature", "properties": { "type": "restaurant", "name": "Antico Pizza Napoletana", "lat": 33.7846556, "lon": -84.4056305, "amenity": "restaurant", "cuisine": "pizza", "leisure": "", "osm_id": 2390865222 }, "geometry": { "type": "Point", "coordinates": [ -84.4056305, 33.7846556 ] } },
{ "type": "Feature", "properties": { "type": "restaurant", "name": "Shake Shack", "lat": 33.78541, "lon": -84.4121409, "amenity": "restaurant", "cuisine": "burger", "leisure": "", "osm_id": 2390865225 }, "geometry": { "type": "Point", "coordinates": [ -84.4121409, 33.78541 ] } },
{ "type": "Feature", "properties": { "type": "restaurant", "name": "Die Biergarten", "lat": 33.7618961, "lon": -84.3966372, "amenity": "restaurant", "cuisine": "german", "leisure": "", "osm_id": 2391516145 }, "geometry": { "type": "Point", "coordinates": [ -84.3966372, 33.7618961 ] } },
{ "type": "Feature", "properties": { "type": "restaurant", "name": "Stats", "lat": 33.7612848, "lon": -84.3962607, "amenity": "restaurant", "cuisine": "american", "leisure": "", "osm_id": 2391516146 }, "geometry": { "type": "Point", "coordinates": [ -84.3962607, 33.7612848 ] } },
{ "type": "Feature", "properties": { "type": "restaurant", "name": "Fresh2Order", "lat": 33.800944, "lon": -84.328139, "amenity": "restaurant", "cuisine": "american", "leisure": "", "osm_id": 2412454888 }, "geometry": { "type": "Point", "coordinates": [ -84.328139, 33.800944 ] } },
{ "type": "Feature", "properties": { "type": "restaurant", "name": "General Muir", "lat": 33.801164, "lon": -84.327131, "amenity": "restaurant", "cuisine": "deli", "leisure": "", "osm_id": 2412456094 }, "geometry": { "type": "Point", "coordinates": [ -84.327131, 33.801164 ] } },
{ "type": "Feature", "properties": { "type": "restaurant", "name": "Unknown", "lat": 33.6829799, "lon": -84.3087891, "amenity": "restaurant", "cuisine": "sandwich", "leisure": "", "osm_id": 2427461612 }, "geometry": { "type": "Point", "coordinates": [ -84.3087891, 33.6829799 ] } },
{ "type": "Feature", "properties": { "type": "restaurant", "name": "Unknown", "lat": 33.6885372, "lon": -84.3085369, "amenity": "restaurant", "cuisine": "regional", "leisure": "", "osm_id": 2427470552 }, "geometry": { "type": "Point", "coordinates": [ -84.3085369, 33.6885372 ] } },
{ "type": "Feature", "properties": { "type": "restaurant", "name": "Tin Drum", "lat": 33.7766984, "lon": -84.3900493, "amenity": "restaurant", "cuisine": "asian", "leisure": "", "osm_id": 2466973843 }, "geometry": { "type": "Point", "coordinates": [ -84.3900493, 33.7766984 ] } },
{ "type": "Feature", "properties": { "type": "restaurant", "name": "White Oak", "lat": 33.7621298, "lon": -84.3878635, "amenity": "restaurant", "cuisine": "american", "leisure": "", "osm_id": 2475185760 }, "geometry": { "type": "Point", "coordinates": [ -84.3878635, 33.7621298 ] } },
{ "type": "Feature", "properties": { "type": "restaurant", "name": "Talkin' Tacos", "lat": 33.826407, "lon": -84.365495, "amenity": "restaurant", "cuisine": "burger", "leisure": "", "osm_id": 2537249094 }, "geometry": { "type": "Point", "coordinates": [ -84.365495, 33.826407 ] } },
{ "type": "Feature", "properties": { "type": "restaurant", "name": "Cat Cora's Kitchen", "lat": 33.6421898, "lon": -84.4390798, "amenity": "restaurant", "cuisine": "", "leisure": "", "osm_id": 2545076507 }, "geometry": { "type": "Point", "coordinates": [ -84.4390798, 33.6421898 ] } },
{ "type": "Feature", "properties": { "type": "restaurant", "name": "Great Wraps", "lat": 33.6409375, "lon": -84.4395335, "amenity": "restaurant", "cuisine": "", "leisure": "", "osm_id": 2545080163 }, "geometry": { "type": "Point", "coordinates": [ -84.4395335, 33.6409375 ] } },
{ "type": "Feature", "properties": { "type": "restaurant", "name": "Max's Coal Oven Pizza", "lat": 33.7615575, "lon": -84.3964558, "amenity": "restaurant", "cuisine": "", "leisure": "", "osm_id": 2661488990 }, "geometry": { "type": "Point", "coordinates": [ -84.3964558, 33.7615575 ] } },
{ "type": "Feature", "properties": { "type": "restaurant", "name": "Pacific Rim Bistro", "lat": 33.7624344, "lon": -84.3858457, "amenity": "restaurant", "cuisine": "asian", "leisure": "", "osm_id": 2661648997 }, "geometry": { "type": "Point", "coordinates": [ -84.3858457, 33.7624344 ] } },
{ "type": "Feature", "properties": { "type": "restaurant", "name": "Big Kahuna Grill", "lat": 33.7627199, "lon": -84.385835, "amenity": "restaurant", "cuisine": "mexican;american", "leisure": "", "osm_id": 2661648998 }, "geometry": { "type": "Point", "coordinates": [ -84.385835, 33.7627199 ] } },
{ "type": "Feature", "properties": { "type": "restaurant", "name": "The Sun Dial Restaurant & View", "lat": 33.7594309, "lon": -84.3885801, "amenity": "restaurant", "cuisine": "american", "leisure": "", "osm_id": 2661649031 }, "geometry": { "type": "Point", "coordinates": [ -84.3885801, 33.7594309 ] } },
{ "type": "Feature", "properties": { "type": "restaurant", "name": "Anatolia Mediterranean Cafe", "lat": 33.755184, "lon": -84.389284, "amenity": "restaurant", "cuisine": "mediterranean", "leisure": "", "osm_id": 2698565984 }, "geometry": { "type": "Point", "coordinates": [ -84.389284, 33.755184 ] } },
{ "type": "Feature", "properties": { "type": "restaurant", "name": "Downtown Gourmet", "lat": 33.7566615, "lon": -84.3880778, "amenity": "restaurant", "cuisine": "mediterranean;greek;indian;pizza", "leisure": "", "osm_id": 2698565985 }, "geometry": { "type": "Point", "coordinates": [ -84.3880778, 33.7566615 ] } },
{ "type": "Feature", "properties": { "type": "restaurant", "name": "Bistro Niko", "lat": 33.8465635, "lon": -84.3685683, "amenity": "restaurant", "cuisine": "french", "leisure": "", "osm_id": 2744416357 }, "geometry": { "type": "Point", "coordinates": [ -84.3685683, 33.8465635 ] } },
{ "type": "Feature", "properties": { "type": "restaurant", "name": "JCT", "lat": 33.7865629, "lon": -84.4123326, "amenity": "restaurant", "cuisine": "", "leisure": "", "osm_id": 2748860795 }, "geometry": { "type": "Point", "coordinates": [ -84.4123326, 33.7865629 ] } },
{ "type": "Feature", "properties": { "type": "restaurant", "name": "Olive Bistro Meze & Wine Bar", "lat": 33.7835135, "lon": -84.3824732, "amenity": "restaurant", "cuisine": "mediterranean", "leisure": "", "osm_id": 2749706026 }, "geometry": { "type": "Point", "coordinates": [ -84.3824732, 33.7835135 ] } },
{ "type": "Feature", "properties": { "type": "restaurant", "name": "Anhs Kitchen", "lat": 33.7779671, "lon": -84.3841208, "amenity": "restaurant", "cuisine": "vietnamese", "leisure": "", "osm_id": 2749706285 }, "geometry": { "type": "Point", "coordinates": [ -84.3841208, 33.7779671 ] } },
{ "type": "Feature", "properties": { "type": "restaurant", "name": "Circle Pok", "lat": 33.7820519, "lon": -84.4078179, "amenity": "restaurant", "cuisine": "asian", "leisure": "", "osm_id": 2749714074 }, "geometry": { "type": "Point", "coordinates": [ -84.4078179, 33.7820519 ] } },
{ "type": "Feature", "properties": { "type": "restaurant", "name": "Lucky Buddha", "lat": 33.7818632, "lon": -84.4047769, "amenity": "restaurant", "cuisine": "chinese", "leisure": "", "osm_id": 2749714135 }, "geometry": { "type": "Point", "coordinates": [ -84.4047769, 33.7818632 ] } },
{ "type": "Feature", "properties": { "type": "restaurant", "name": "Pizza Hut", "lat": 33.7818534, "lon": -84.4053703, "amenity": "restaurant", "cuisine": "pizza", "leisure": "", "osm_id": 2749714155 }, "geometry": { "type": "Point", "coordinates": [ -84.4053703, 33.7818534 ] } },
{ "type": "Feature", "properties": { "type": "restaurant", "name": "CAVA", "lat": 33.7774987, "lon": -84.3842205, "amenity": "restaurant", "cuisine": "mediterranean", "leisure": "", "osm_id": 2750966522 }, "geometry": { "type": "Point", "coordinates": [ -84.3842205, 33.7774987 ] } },
{ "type": "Feature", "properties": { "type": "restaurant", "name": "Rush Bowls", "lat": 33.7778235, "lon": -84.3841353, "amenity": "restaurant", "cuisine": "yogurt;fruit;smoothie", "leisure": "", "osm_id": 2750966533 }, "geometry": { "type": "Point", "coordinates": [ -84.3841353, 33.7778235 ] } },
{ "type": "Feature", "properties": { "type": "restaurant", "name": "Kale Me Crazy", "lat": 33.7628754, "lon": -84.3584245, "amenity": "restaurant", "cuisine": "juice", "leisure": "", "osm_id": 2753814694 }, "geometry": { "type": "Point", "coordinates": [ -84.3584245, 33.7628754 ] } },
{ "type": "Feature", "properties": { "type": "restaurant", "name": "Pure Taqueria", "lat": 33.7630055, "lon": -84.3582786, "amenity": "restaurant", "cuisine": "mexican", "leisure": "", "osm_id": 2753814702 }, "geometry": { "type": "Point", "coordinates": [ -84.3582786, 33.7630055 ] } },
{ "type": "Feature", "properties": { "type": "restaurant", "name": "Smokey Stallion BBQ Bistro", "lat": 33.7521838, "lon": -84.3980857, "amenity": "restaurant", "cuisine": "barbecue", "leisure": "", "osm_id": 2755107977 }, "geometry": { "type": "Point", "coordinates": [ -84.3980857, 33.7521838 ] } },
{ "type": "Feature", "properties": { "type": "restaurant", "name": "Downtown Wings", "lat": 33.7531414, "lon": -84.3920342, "amenity": "restaurant", "cuisine": "american", "leisure": "", "osm_id": 2755107992 }, "geometry": { "type": "Point", "coordinates": [ -84.3920342, 33.7531414 ] } },
{ "type": "Feature", "properties": { "type": "restaurant", "name": "Slice", "lat": 33.756905, "lon": -84.3901232, "amenity": "restaurant", "cuisine": "pizza", "leisure": "", "osm_id": 2755108027 }, "geometry": { "type": "Point", "coordinates": [ -84.3901232, 33.756905 ] } },
{ "type": "Feature", "properties": { "type": "restaurant", "name": "Banshee", "lat": 33.7400282, "lon": -84.3459555, "amenity": "restaurant", "cuisine": "", "leisure": "", "osm_id": 2760845523 }, "geometry": { "type": "Point", "coordinates": [ -84.3459555, 33.7400282 ] } },
{ "type": "Feature", "properties": { "type": "restaurant", "name": "Fresh To Order", "lat": 33.778257, "lon": -84.384561, "amenity": "restaurant", "cuisine": "american", "leisure": "", "osm_id": 2820914301 }, "geometry": { "type": "Point", "coordinates": [ -84.384561, 33.778257 ] } },
{ "type": "Feature", "properties": { "type": "restaurant", "name": "Mellow Mushroom", "lat": 33.8613197, "lon": -84.340062, "amenity": "restaurant", "cuisine": "pizza", "leisure": "", "osm_id": 2922817401 }, "geometry": { "type": "Point", "coordinates": [ -84.340062, 33.8613197 ] } },
{ "type": "Feature", "properties": { "type": "restaurant", "name": "TGI Friday's", "lat": 33.6406637, "lon": -84.4354705, "amenity": "restaurant", "cuisine": "american", "leisure": "", "osm_id": 2924093236 }, "geometry": { "type": "Point", "coordinates": [ -84.4354705, 33.6406637 ] } },
{ "type": "Feature", "properties": { "type": "restaurant", "name": "Mustard Seed", "lat": 33.6416672, "lon": -84.4292331, "amenity": "restaurant", "cuisine": "", "leisure": "", "osm_id": 2924606877 }, "geometry": { "type": "Point", "coordinates": [ -84.4292331, 33.6416672 ] } },
{ "type": "Feature", "properties": { "type": "restaurant", "name": "IHOP", "lat": 33.6406424, "lon": -84.4448818, "amenity": "restaurant", "cuisine": "breakfast;pancake", "leisure": "", "osm_id": 2924610304 }, "geometry": { "type": "Point", "coordinates": [ -84.4448818, 33.6406424 ] } },
{ "type": "Feature", "properties": { "type": "restaurant", "name": "TGI Friday's", "lat": 33.6409911, "lon": -84.4450378, "amenity": "restaurant", "cuisine": "american", "leisure": "", "osm_id": 2924610305 }, "geometry": { "type": "Point", "coordinates": [ -84.4450378, 33.6409911 ] } },
{ "type": "Feature", "properties": { "type": "restaurant", "name": "Cibo e Beve", "lat": 33.8899341, "lon": -84.3808943, "amenity": "restaurant", "cuisine": "", "leisure": "", "osm_id": 2928753841 }, "geometry": { "type": "Point", "coordinates": [ -84.3808943, 33.8899341 ] } },
{ "type": "Feature", "properties": { "type": "restaurant", "name": "Mezza Luna Pasta & Seafood", "lat": 33.8828094, "lon": -84.5048493, "amenity": "restaurant", "cuisine": "italian", "leisure": "", "osm_id": 2959951633 }, "geometry": { "type": "Point", "coordinates": [ -84.5048493, 33.8828094 ] } },
{ "type": "Feature", "properties": { "type": "restaurant", "name": "US Cafe Express", "lat": 33.8824623, "lon": -84.4872325, "amenity": "restaurant", "cuisine": "burger", "leisure": "", "osm_id": 2966322031 }, "geometry": { "type": "Point", "coordinates": [ -84.4872325, 33.8824623 ] } },
{ "type": "Feature", "properties": { "type": "restaurant", "name": "Dakota Blue", "lat": 33.7420813, "lon": -84.3733069, "amenity": "restaurant", "cuisine": "", "leisure": "", "osm_id": 2969376076 }, "geometry": { "type": "Point", "coordinates": [ -84.3733069, 33.7420813 ] } },
{ "type": "Feature", "properties": { "type": "restaurant", "name": "LongHorn Steakhouse", "lat": 33.8810434, "lon": -84.4603126, "amenity": "restaurant", "cuisine": "steak_house", "leisure": "", "osm_id": 2970517280 }, "geometry": { "type": "Point", "coordinates": [ -84.4603126, 33.8810434 ] } },
{ "type": "Feature", "properties": { "type": "restaurant", "name": "Philly Connection", "lat": 33.8799126, "lon": -84.4612333, "amenity": "restaurant", "cuisine": "sandwich", "leisure": "", "osm_id": 2977871033 }, "geometry": { "type": "Point", "coordinates": [ -84.4612333, 33.8799126 ] } },
{ "type": "Feature", "properties": { "type": "restaurant", "name": "Mint Leaf Indian Cuisine", "lat": 33.882531, "lon": -84.4867081, "amenity": "restaurant", "cuisine": "indian", "leisure": "", "osm_id": 2980398979 }, "geometry": { "type": "Point", "coordinates": [ -84.4867081, 33.882531 ] } },
{ "type": "Feature", "properties": { "type": "restaurant", "name": "Jamaica-MikrazY", "lat": 33.8835623, "lon": -84.4803222, "amenity": "restaurant", "cuisine": "jamaican", "leisure": "", "osm_id": 2980443809 }, "geometry": { "type": "Point", "coordinates": [ -84.4803222, 33.8835623 ] } },
{ "type": "Feature", "properties": { "type": "restaurant", "name": "Taco Cantina", "lat": 33.8835469, "lon": -84.4806621, "amenity": "restaurant", "cuisine": "mexican", "leisure": "", "osm_id": 2980443810 }, "geometry": { "type": "Point", "coordinates": [ -84.4806621, 33.8835469 ] } },
{ "type": "Feature", "properties": { "type": "restaurant", "name": "PaPa Roy's Louisiana Kitchen", "lat": 33.8835303, "lon": -84.4803857, "amenity": "restaurant", "cuisine": "", "leisure": "", "osm_id": 2980443812 }, "geometry": { "type": "Point", "coordinates": [ -84.4803857, 33.8835303 ] } },
{ "type": "Feature", "properties": { "type": "restaurant", "name": "Minato Japanese Restaurant", "lat": 33.8844349, "lon": -84.4753501, "amenity": "restaurant", "cuisine": "japanese", "leisure": "", "osm_id": 2980463270 }, "geometry": { "type": "Point", "coordinates": [ -84.4753501, 33.8844349 ] } },
{ "type": "Feature", "properties": { "type": "restaurant", "name": "The Flying Biscuit Cafe", "lat": 33.8506368, "lon": -84.4291538, "amenity": "restaurant", "cuisine": "", "leisure": "", "osm_id": 2981923784 }, "geometry": { "type": "Point", "coordinates": [ -84.4291538, 33.8506368 ] } },
{ "type": "Feature", "properties": { "type": "restaurant", "name": "Hawaiian BBQ", "lat": 33.81661, "lon": -84.33569, "amenity": "restaurant", "cuisine": "hawaiian", "leisure": "", "osm_id": 2993285934 }, "geometry": { "type": "Point", "coordinates": [ -84.33569, 33.81661 ] } },
{ "type": "Feature", "properties": { "type": "restaurant", "name": "Maddio's", "lat": 33.8142941, "lon": -84.3098393, "amenity": "restaurant", "cuisine": "pizza", "leisure": "", "osm_id": 2993302433 }, "geometry": { "type": "Point", "coordinates": [ -84.3098393, 33.8142941 ] } },
{ "type": "Feature", "properties": { "type": "restaurant", "name": "Iron Age Korean Steakhouse", "lat": 33.814238, "lon": -84.311935, "amenity": "restaurant", "cuisine": "", "leisure": "", "osm_id": 2993302633 }, "geometry": { "type": "Point", "coordinates": [ -84.311935, 33.814238 ] } },
{ "type": "Feature", "properties": { "type": "restaurant", "name": "Chris's", "lat": 33.815927, "lon": -84.312411, "amenity": "restaurant", "cuisine": "mediterranean", "leisure": "", "osm_id": 2993304733 }, "geometry": { "type": "Point", "coordinates": [ -84.312411, 33.815927 ] } },
{ "type": "Feature", "properties": { "type": "restaurant", "name": "Mediteranean Grill", "lat": 33.790614, "lon": -84.305018, "amenity": "restaurant", "cuisine": "mediterranean", "leisure": "", "osm_id": 2993307633 }, "geometry": { "type": "Point", "coordinates": [ -84.305018, 33.790614 ] } },
{ "type": "Feature", "properties": { "type": "restaurant", "name": "The Optimist", "lat": 33.7798543, "lon": -84.4106489, "amenity": "restaurant", "cuisine": "seafood", "leisure": "", "osm_id": 3021100658 }, "geometry": { "type": "Point", "coordinates": [ -84.4106489, 33.7798543 ] } },
{ "type": "Feature", "properties": { "type": "restaurant", "name": "Bastone", "lat": 33.7795053, "lon": -84.4099081, "amenity": "restaurant", "cuisine": "", "leisure": "", "osm_id": 3021106034 }, "geometry": { "type": "Point", "coordinates": [ -84.4099081, 33.7795053 ] } },
{ "type": "Feature", "properties": { "type": "restaurant", "name": "Avellino's", "lat": 33.8810192, "lon": -84.3426608, "amenity": "restaurant", "cuisine": "italian", "leisure": "", "osm_id": 3062574176 }, "geometry": { "type": "Point", "coordinates": [ -84.3426608, 33.8810192 ] } },
{ "type": "Feature", "properties": { "type": "restaurant", "name": "Bhojanic", "lat": 33.846034, "lon": -84.365571, "amenity": "restaurant", "cuisine": "indian", "leisure": "", "osm_id": 3113493729 }, "geometry": { "type": "Point", "coordinates": [ -84.365571, 33.846034 ] } },
{ "type": "Feature", "properties": { "type": "restaurant", "name": "Dantanna's", "lat": 33.847597, "lon": -84.365175, "amenity": "restaurant", "cuisine": "steak_house", "leisure": "", "osm_id": 3113548130 }, "geometry": { "type": "Point", "coordinates": [ -84.365175, 33.847597 ] } },
{ "type": "Feature", "properties": { "type": "restaurant", "name": "The Cheesecake Factory", "lat": 33.848239, "lon": -84.362789, "amenity": "restaurant", "cuisine": "american", "leisure": "", "osm_id": 3113556129 }, "geometry": { "type": "Point", "coordinates": [ -84.362789, 33.848239 ] } },
{ "type": "Feature", "properties": { "type": "restaurant", "name": "Folk Art", "lat": 33.766636, "lon": -84.352974, "amenity": "restaurant", "cuisine": "american", "leisure": "", "osm_id": 3125018229 }, "geometry": { "type": "Point", "coordinates": [ -84.352974, 33.766636 ] } },
{ "type": "Feature", "properties": { "type": "restaurant", "name": "Le Petit Marche", "lat": 33.7514788, "lon": -84.3225589, "amenity": "restaurant", "cuisine": "breakfast;lunch", "leisure": "", "osm_id": 3129823424 }, "geometry": { "type": "Point", "coordinates": [ -84.3225589, 33.7514788 ] } },
{ "type": "Feature", "properties": { "type": "restaurant", "name": "Dos Madres Cantina", "lat": 33.7754507, "lon": -84.3011559, "amenity": "restaurant", "cuisine": "mexican", "leisure": "", "osm_id": 3129894048 }, "geometry": { "type": "Point", "coordinates": [ -84.3011559, 33.7754507 ] } },
{ "type": "Feature", "properties": { "type": "restaurant", "name": "Arden's Garden", "lat": 33.7509481, "lon": -84.3218588, "amenity": "restaurant", "cuisine": "juice;smoothie", "leisure": "", "osm_id": 3129949339 }, "geometry": { "type": "Point", "coordinates": [ -84.3218588, 33.7509481 ] } },
{ "type": "Feature", "properties": { "type": "restaurant", "name": "Kirkwood Kravingz", "lat": 33.7509837, "lon": -84.3228647, "amenity": "restaurant", "cuisine": "", "leisure": "", "osm_id": 3129949340 }, "geometry": { "type": "Point", "coordinates": [ -84.3228647, 33.7509837 ] } },
{ "type": "Feature", "properties": { "type": "restaurant", "name": "Dulce Vegan Bakery and Cafe", "lat": 33.751345, "lon": -84.3223765, "amenity": "restaurant", "cuisine": "", "leisure": "", "osm_id": 3129949342 }, "geometry": { "type": "Point", "coordinates": [ -84.3223765, 33.751345 ] } },
{ "type": "Feature", "properties": { "type": "restaurant", "name": "Paschal's Restaurant", "lat": 33.7493283, "lon": -84.403932, "amenity": "restaurant", "cuisine": "", "leisure": "", "osm_id": 3192012249 }, "geometry": { "type": "Point", "coordinates": [ -84.403932, 33.7493283 ] } },
{ "type": "Feature", "properties": { "type": "restaurant", "name": "C&S Seafood & Oyster Bar", "lat": 33.8725721, "lon": -84.457611, "amenity": "restaurant", "cuisine": "seafood", "leisure": "", "osm_id": 3197293973 }, "geometry": { "type": "Point", "coordinates": [ -84.457611, 33.8725721 ] } },
{ "type": "Feature", "properties": { "type": "restaurant", "name": "Pho 24", "lat": 33.877578, "lon": -84.293348, "amenity": "restaurant", "cuisine": "vietnamese", "leisure": "", "osm_id": 3261049161 }, "geometry": { "type": "Point", "coordinates": [ -84.293348, 33.877578 ] } },
{ "type": "Feature", "properties": { "type": "restaurant", "name": "Grub Burger Bar", "lat": 33.8812082, "lon": -84.4602428, "amenity": "restaurant", "cuisine": "burger", "leisure": "", "osm_id": 3266118859 }, "geometry": { "type": "Point", "coordinates": [ -84.4602428, 33.8812082 ] } },
{ "type": "Feature", "properties": { "type": "restaurant", "name": "Blaze Pizza", "lat": 33.8827961, "lon": -84.4619625, "amenity": "restaurant", "cuisine": "pizza", "leisure": "", "osm_id": 3289281720 }, "geometry": { "type": "Point", "coordinates": [ -84.4619625, 33.8827961 ] } },
{ "type": "Feature", "properties": { "type": "restaurant", "name": "Top Spice", "lat": 33.8810111, "lon": -84.4584136, "amenity": "restaurant", "cuisine": "thai;malaysian", "leisure": "", "osm_id": 3290573153 }, "geometry": { "type": "Point", "coordinates": [ -84.4584136, 33.8810111 ] } },
{ "type": "Feature", "properties": { "type": "restaurant", "name": "Zucca Bar & Pizzeria", "lat": 33.883747, "lon": -84.5147305, "amenity": "restaurant", "cuisine": "pizza", "leisure": "", "osm_id": 3330207993 }, "geometry": { "type": "Point", "coordinates": [ -84.5147305, 33.883747 ] } },
{ "type": "Feature", "properties": { "type": "restaurant", "name": "Hobnob Neighborhood Tavern", "lat": 33.87078, "lon": -84.336713, "amenity": "restaurant", "cuisine": "", "leisure": "", "osm_id": 3337081293 }, "geometry": { "type": "Point", "coordinates": [ -84.336713, 33.87078 ] } },
{ "type": "Feature", "properties": { "type": "restaurant", "name": "Varuni Napoli", "lat": 33.79656, "lon": -84.368756, "amenity": "restaurant", "cuisine": "pizza", "leisure": "", "osm_id": 3337102893 }, "geometry": { "type": "Point", "coordinates": [ -84.368756, 33.79656 ] } },
{ "type": "Feature", "properties": { "type": "restaurant", "name": "Sweet Monkey", "lat": 33.801185, "lon": -84.327449, "amenity": "restaurant", "cuisine": "yogurt", "leisure": "", "osm_id": 3360404393 }, "geometry": { "type": "Point", "coordinates": [ -84.327449, 33.801185 ] } },
{ "type": "Feature", "properties": { "type": "restaurant", "name": "Hoki Japanese Restaurant", "lat": 33.872428, "lon": -84.4578726, "amenity": "restaurant", "cuisine": "japanese", "leisure": "", "osm_id": 3383890917 }, "geometry": { "type": "Point", "coordinates": [ -84.4578726, 33.872428 ] } },
{ "type": "Feature", "properties": { "type": "restaurant", "name": "Sean's Harvest Market", "lat": 33.7971809, "lon": -84.388117, "amenity": "restaurant", "cuisine": "", "leisure": "", "osm_id": 3394631304 }, "geometry": { "type": "Point", "coordinates": [ -84.388117, 33.7971809 ] } },
{ "type": "Feature", "properties": { "type": "restaurant", "name": "Willy's Mexicana Grill", "lat": 33.7511907, "lon": -84.3854161, "amenity": "restaurant", "cuisine": "mexican", "leisure": "", "osm_id": 3395223194 }, "geometry": { "type": "Point", "coordinates": [ -84.3854161, 33.7511907 ] } },
{ "type": "Feature", "properties": { "type": "restaurant", "name": "Brasserie Lundi", "lat": 33.7925172, "lon": -84.3860549, "amenity": "restaurant", "cuisine": "french", "leisure": "", "osm_id": 3398654312 }, "geometry": { "type": "Point", "coordinates": [ -84.3860549, 33.7925172 ] } },
{ "type": "Feature", "properties": { "type": "restaurant", "name": "The Pig & The Pearl", "lat": 33.7933807, "lon": -84.3977011, "amenity": "restaurant", "cuisine": "american", "leisure": "", "osm_id": 3401099035 }, "geometry": { "type": "Point", "coordinates": [ -84.3977011, 33.7933807 ] } },
{ "type": "Feature", "properties": { "type": "restaurant", "name": "Chin Chin Chinese Cuisine & Sushi", "lat": 33.8839245, "lon": -84.474157, "amenity": "restaurant", "cuisine": "asian", "leisure": "", "osm_id": 3414649728 }, "geometry": { "type": "Point", "coordinates": [ -84.474157, 33.8839245 ] } },
{ "type": "Feature", "properties": { "type": "restaurant", "name": "Bobby's Burger Palace", "lat": 33.6423582, "lon": -84.43601, "amenity": "restaurant", "cuisine": "burger", "leisure": "", "osm_id": 3441653091 }, "geometry": { "type": "Point", "coordinates": [ -84.43601, 33.6423582 ] } },
{ "type": "Feature", "properties": { "type": "restaurant", "name": "One Flew South", "lat": 33.6409423, "lon": -84.4258015, "amenity": "restaurant", "cuisine": "sushi", "leisure": "", "osm_id": 3448635977 }, "geometry": { "type": "Point", "coordinates": [ -84.4258015, 33.6409423 ] } },
{ "type": "Feature", "properties": { "type": "restaurant", "name": "TGI Friday's", "lat": 33.640346, "lon": -84.4251718, "amenity": "restaurant", "cuisine": "american", "leisure": "", "osm_id": 3448635979 }, "geometry": { "type": "Point", "coordinates": [ -84.4251718, 33.640346 ] } },
{ "type": "Feature", "properties": { "type": "restaurant", "name": "Yumm Teriyaki", "lat": 33.752256, "lon": -84.3921578, "amenity": "restaurant", "cuisine": "japanese", "leisure": "", "osm_id": 3499564754 }, "geometry": { "type": "Point", "coordinates": [ -84.3921578, 33.752256 ] } },
{ "type": "Feature", "properties": { "type": "restaurant", "name": "Melinated Cafe", "lat": 33.7502096, "lon": -84.3952853, "amenity": "restaurant", "cuisine": "american;mexican", "leisure": "", "osm_id": 3517775855 }, "geometry": { "type": "Point", "coordinates": [ -84.3952853, 33.7502096 ] } },
{ "type": "Feature", "properties": { "type": "restaurant", "name": "So Ba Vietnamese Restaurant", "lat": 33.7394468, "lon": -84.3456597, "amenity": "restaurant", "cuisine": "vietnamese", "leisure": "", "osm_id": 3551242292 }, "geometry": { "type": "Point", "coordinates": [ -84.3456597, 33.7394468 ] } },
{ "type": "Feature", "properties": { "type": "restaurant", "name": "Delia's Chicken Sausage Stand", "lat": 33.7408, "lon": -84.3496169, "amenity": "restaurant", "cuisine": "", "leisure": "", "osm_id": 3551718425 }, "geometry": { "type": "Point", "coordinates": [ -84.3496169, 33.7408 ] } },
{ "type": "Feature", "properties": { "type": "restaurant", "name": "Blu Cantina", "lat": 33.7403365, "lon": -84.3468838, "amenity": "restaurant", "cuisine": "mexican", "leisure": "", "osm_id": 3551732988 }, "geometry": { "type": "Point", "coordinates": [ -84.3468838, 33.7403365 ] } },
{ "type": "Feature", "properties": { "type": "restaurant", "name": "Spoon EastSide", "lat": 33.7336833, "lon": -84.3498675, "amenity": "restaurant", "cuisine": "", "leisure": "", "osm_id": 3564217654 }, "geometry": { "type": "Point", "coordinates": [ -84.3498675, 33.7336833 ] } },
{ "type": "Feature", "properties": { "type": "restaurant", "name": "Sushi Matsuya", "lat": 33.8158569, "lon": -84.3128946, "amenity": "restaurant", "cuisine": "japanese", "leisure": "", "osm_id": 3599558410 }, "geometry": { "type": "Point", "coordinates": [ -84.3128946, 33.8158569 ] } },
{ "type": "Feature", "properties": { "type": "restaurant", "name": "Napoleon's Grill", "lat": 33.825735, "lon": -84.290597, "amenity": "restaurant", "cuisine": "american", "leisure": "", "osm_id": 3601380593 }, "geometry": { "type": "Point", "coordinates": [ -84.290597, 33.825735 ] } },
{ "type": "Feature", "properties": { "type": "restaurant", "name": "Crazy Cuban", "lat": 33.7860199, "lon": -84.3965325, "amenity": "restaurant", "cuisine": "cuban", "leisure": "", "osm_id": 3676747880 }, "geometry": { "type": "Point", "coordinates": [ -84.3965325, 33.7860199 ] } },
{ "type": "Feature", "properties": { "type": "restaurant", "name": "Fred's Meat & Bread", "lat": 33.7568609, "lon": -84.3639728, "amenity": "restaurant", "cuisine": "sandwich", "leisure": "", "osm_id": 3681452517 }, "geometry": { "type": "Point", "coordinates": [ -84.3639728, 33.7568609 ] } },
{ "type": "Feature", "properties": { "type": "restaurant", "name": "Casseroles To Go", "lat": 33.792155, "lon": -84.352177, "amenity": "restaurant", "cuisine": "american", "leisure": "", "osm_id": 3690369926 }, "geometry": { "type": "Point", "coordinates": [ -84.352177, 33.792155 ] } },
{ "type": "Feature", "properties": { "type": "restaurant", "name": "Twisted Soul Cookhouse & Pours", "lat": 33.7892146, "lon": -84.4252648, "amenity": "restaurant", "cuisine": "southern;brunch", "leisure": "", "osm_id": 3695986247 }, "geometry": { "type": "Point", "coordinates": [ -84.4252648, 33.7892146 ] } },
{ "type": "Feature", "properties": { "type": "restaurant", "name": "Bartaco", "lat": 33.8651838, "lon": -84.4675438, "amenity": "restaurant", "cuisine": "mexican", "leisure": "", "osm_id": 3797629214 }, "geometry": { "type": "Point", "coordinates": [ -84.4675438, 33.8651838 ] } },
{ "type": "Feature", "properties": { "type": "restaurant", "name": "Mellow Mushroom", "lat": 33.8650779, "lon": -84.467714, "amenity": "restaurant", "cuisine": "pizza", "leisure": "", "osm_id": 3797629215 }, "geometry": { "type": "Point", "coordinates": [ -84.467714, 33.8650779 ] } },
{ "type": "Feature", "properties": { "type": "restaurant", "name": "Bon Ton", "lat": 33.772956, "lon": -84.3803812, "amenity": "restaurant", "cuisine": "seafood;fusion;vietnamese;cajun", "leisure": "", "osm_id": 3827911857 }, "geometry": { "type": "Point", "coordinates": [ -84.3803812, 33.772956 ] } },
{ "type": "Feature", "properties": { "type": "restaurant", "name": "Orange Opt", "lat": 33.6409612, "lon": -84.4291683, "amenity": "restaurant", "cuisine": "", "leisure": "", "osm_id": 3839586391 }, "geometry": { "type": "Point", "coordinates": [ -84.4291683, 33.6409612 ] } },
{ "type": "Feature", "properties": { "type": "restaurant", "name": "Phillips seafood", "lat": 33.640964, "lon": -84.4290505, "amenity": "restaurant", "cuisine": "", "leisure": "", "osm_id": 3839586513 }, "geometry": { "type": "Point", "coordinates": [ -84.4290505, 33.640964 ] } },
{ "type": "Feature", "properties": { "type": "restaurant", "name": "Pera Bistro", "lat": 33.8116833, "lon": -84.4244442, "amenity": "restaurant", "cuisine": "mediterranean", "leisure": "", "osm_id": 3919711354 }, "geometry": { "type": "Point", "coordinates": [ -84.4244442, 33.8116833 ] } },
{ "type": "Feature", "properties": { "type": "restaurant", "name": "1201 Restaurant", "lat": 33.8116286, "lon": -84.425045, "amenity": "restaurant", "cuisine": "american", "leisure": "", "osm_id": 3919726884 }, "geometry": { "type": "Point", "coordinates": [ -84.425045, 33.8116286 ] } },
{ "type": "Feature", "properties": { "type": "restaurant", "name": "Marlow's Tavern", "lat": 33.8594159, "lon": -84.4807558, "amenity": "restaurant", "cuisine": "", "leisure": "", "osm_id": 4000554428 }, "geometry": { "type": "Point", "coordinates": [ -84.4807558, 33.8594159 ] } },
{ "type": "Feature", "properties": { "type": "restaurant", "name": "Whitehall Tavern", "lat": 33.8201785, "lon": -84.3876576, "amenity": "restaurant", "cuisine": "american", "leisure": "", "osm_id": 4081416779 }, "geometry": { "type": "Point", "coordinates": [ -84.3876576, 33.8201785 ] } },
{ "type": "Feature", "properties": { "type": "restaurant", "name": "Pasta Vino", "lat": 33.8201657, "lon": -84.3874384, "amenity": "restaurant", "cuisine": "italian", "leisure": "", "osm_id": 4081418996 }, "geometry": { "type": "Point", "coordinates": [ -84.3874384, 33.8201657 ] } },
{ "type": "Feature", "properties": { "type": "restaurant", "name": "Valenza", "lat": 33.860733, "lon": -84.329992, "amenity": "restaurant", "cuisine": "italian", "leisure": "", "osm_id": 4175070892 }, "geometry": { "type": "Point", "coordinates": [ -84.329992, 33.860733 ] } },
{ "type": "Feature", "properties": { "type": "restaurant", "name": "Gus's Fried Chicken", "lat": 33.7599188, "lon": -84.3862224, "amenity": "restaurant", "cuisine": "chicken", "leisure": "", "osm_id": 4241446983 }, "geometry": { "type": "Point", "coordinates": [ -84.3862224, 33.7599188 ] } },
{ "type": "Feature", "properties": { "type": "restaurant", "name": "BoccaLupa", "lat": 33.7547752, "lon": -84.3627599, "amenity": "restaurant", "cuisine": "italian", "leisure": "", "osm_id": 4262432590 }, "geometry": { "type": "Point", "coordinates": [ -84.3627599, 33.7547752 ] } },
{ "type": "Feature", "properties": { "type": "restaurant", "name": "Unknown", "lat": 33.7572359, "lon": -84.3541153, "amenity": "restaurant", "cuisine": "", "leisure": "", "osm_id": 4263220525 }, "geometry": { "type": "Point", "coordinates": [ -84.3541153, 33.7572359 ] } },
{ "type": "Feature", "properties": { "type": "restaurant", "name": "Lady Bird", "lat": 33.759606, "lon": -84.3642227, "amenity": "restaurant", "cuisine": "american", "leisure": "", "osm_id": 4286876987 }, "geometry": { "type": "Point", "coordinates": [ -84.3642227, 33.759606 ] } },
{ "type": "Feature", "properties": { "type": "restaurant", "name": "Sushi Avenue", "lat": 33.7744632, "lon": -84.2958145, "amenity": "restaurant", "cuisine": "japanese", "leisure": "", "osm_id": 4322881275 }, "geometry": { "type": "Point", "coordinates": [ -84.2958145, 33.7744632 ] } },
{ "type": "Feature", "properties": { "type": "restaurant", "name": "Atlanta Hawks Bar & Grill", "lat": 33.6436938, "lon": -84.4392094, "amenity": "restaurant", "cuisine": "american", "leisure": "", "osm_id": 4373731823 }, "geometry": { "type": "Point", "coordinates": [ -84.4392094, 33.6436938 ] } },
{ "type": "Feature", "properties": { "type": "restaurant", "name": "Wings 101", "lat": 33.8262408, "lon": -84.3660979, "amenity": "restaurant", "cuisine": "", "leisure": "", "osm_id": 4392934439 }, "geometry": { "type": "Point", "coordinates": [ -84.3660979, 33.8262408 ] } },
{ "type": "Feature", "properties": { "type": "restaurant", "name": "Tech Taco", "lat": 33.7818628, "lon": -84.404636, "amenity": "restaurant", "cuisine": "", "leisure": "", "osm_id": 4428436126 }, "geometry": { "type": "Point", "coordinates": [ -84.404636, 33.7818628 ] } },
{ "type": "Feature", "properties": { "type": "restaurant", "name": "Terrapin Tap House Cigar and Smoke Lounge", "lat": 33.6408396, "lon": -84.4289266, "amenity": "restaurant", "cuisine": "american", "leisure": "", "osm_id": 4522301294 }, "geometry": { "type": "Point", "coordinates": [ -84.4289266, 33.6408396 ] } },
{ "type": "Feature", "properties": { "type": "restaurant", "name": "Cafe Antico", "lat": 33.7842093, "lon": -84.4054069, "amenity": "restaurant", "cuisine": "italian;pizza", "leisure": "", "osm_id": 4531981878 }, "geometry": { "type": "Point", "coordinates": [ -84.4054069, 33.7842093 ] } },
{ "type": "Feature", "properties": { "type": "restaurant", "name": "Sophie's Uptown", "lat": 33.8369398, "lon": -84.3834689, "amenity": "restaurant", "cuisine": "deli", "leisure": "", "osm_id": 4631404113 }, "geometry": { "type": "Point", "coordinates": [ -84.3834689, 33.8369398 ] } },
{ "type": "Feature", "properties": { "type": "restaurant", "name": "The Cookie Studio", "lat": 33.836965, "lon": -84.3829365, "amenity": "restaurant", "cuisine": "bakery", "leisure": "", "osm_id": 4631404114 }, "geometry": { "type": "Point", "coordinates": [ -84.3829365, 33.836965 ] } },
{ "type": "Feature", "properties": { "type": "restaurant", "name": "Brio", "lat": 33.8357022, "lon": -84.3824517, "amenity": "restaurant", "cuisine": "italian", "leisure": "", "osm_id": 4643468352 }, "geometry": { "type": "Point", "coordinates": [ -84.3824517, 33.8357022 ] } },
{ "type": "Feature", "properties": { "type": "restaurant", "name": "Raja Indian", "lat": 33.8354932, "lon": -84.3817177, "amenity": "restaurant", "cuisine": "indian", "leisure": "", "osm_id": 4643468363 }, "geometry": { "type": "Point", "coordinates": [ -84.3817177, 33.8354932 ] } },
{ "type": "Feature", "properties": { "type": "restaurant", "name": "Lee's Bakery", "lat": 33.8600468, "lon": -84.3089377, "amenity": "restaurant", "cuisine": "", "leisure": "", "osm_id": 4654064932 }, "geometry": { "type": "Point", "coordinates": [ -84.3089377, 33.8600468 ] } },
{ "type": "Feature", "properties": { "type": "restaurant", "name": "Canton Buddha", "lat": 33.8343479, "lon": -84.3836959, "amenity": "restaurant", "cuisine": "chinese", "leisure": "", "osm_id": 4664879359 }, "geometry": { "type": "Point", "coordinates": [ -84.3836959, 33.8343479 ] } },
{ "type": "Feature", "properties": { "type": "restaurant", "name": "Barberitos", "lat": 33.833732, "lon": -84.3843117, "amenity": "restaurant", "cuisine": "mexican", "leisure": "", "osm_id": 4664879363 }, "geometry": { "type": "Point", "coordinates": [ -84.3843117, 33.833732 ] } },
{ "type": "Feature", "properties": { "type": "restaurant", "name": "Your Pie", "lat": 33.8397525, "lon": -84.3804246, "amenity": "restaurant", "cuisine": "pizza", "leisure": "", "osm_id": 4664879369 }, "geometry": { "type": "Point", "coordinates": [ -84.3804246, 33.8397525 ] } },
{ "type": "Feature", "properties": { "type": "restaurant", "name": "King + Duke", "lat": 33.8392219, "lon": -84.3807154, "amenity": "restaurant", "cuisine": "american", "leisure": "", "osm_id": 4664879370 }, "geometry": { "type": "Point", "coordinates": [ -84.3807154, 33.8392219 ] } },
{ "type": "Feature", "properties": { "type": "restaurant", "name": "American Cut", "lat": 33.8373609, "lon": -84.3810406, "amenity": "restaurant", "cuisine": "steak_house", "leisure": "", "osm_id": 4664879373 }, "geometry": { "type": "Point", "coordinates": [ -84.3810406, 33.8373609 ] } },
{ "type": "Feature", "properties": { "type": "restaurant", "name": "Le Bilboquet", "lat": 33.837676, "lon": -84.3803391, "amenity": "restaurant", "cuisine": "french", "leisure": "", "osm_id": 4664879374 }, "geometry": { "type": "Point", "coordinates": [ -84.3803391, 33.837676 ] } },
{ "type": "Feature", "properties": { "type": "restaurant", "name": "Cacao Buckhead", "lat": 33.8378419, "lon": -84.3808305, "amenity": "restaurant", "cuisine": "", "leisure": "", "osm_id": 4664879375 }, "geometry": { "type": "Point", "coordinates": [ -84.3808305, 33.8378419 ] } },
{ "type": "Feature", "properties": { "type": "restaurant", "name": "The Southern Gentleman", "lat": 33.8378962, "lon": -84.3807137, "amenity": "restaurant", "cuisine": "", "leisure": "", "osm_id": 4664879376 }, "geometry": { "type": "Point", "coordinates": [ -84.3807137, 33.8378962 ] } },
{ "type": "Feature", "properties": { "type": "restaurant", "name": "Gypsy Kitchen", "lat": 33.837838, "lon": -84.380674, "amenity": "restaurant", "cuisine": "", "leisure": "", "osm_id": 4664879377 }, "geometry": { "type": "Point", "coordinates": [ -84.380674, 33.837838 ] } },
{ "type": "Feature", "properties": { "type": "restaurant", "name": "Maggiano's Little Italy", "lat": 33.8481716, "lon": -84.3673571, "amenity": "restaurant", "cuisine": "american;italian", "leisure": "", "osm_id": 4705937286 }, "geometry": { "type": "Point", "coordinates": [ -84.3673571, 33.8481716 ] } },
{ "type": "Feature", "properties": { "type": "restaurant", "name": "Tupelo Honey Caf", "lat": 33.8796167, "lon": -84.3801792, "amenity": "restaurant", "cuisine": "", "leisure": "", "osm_id": 4708563492 }, "geometry": { "type": "Point", "coordinates": [ -84.3801792, 33.8796167 ] } },
{ "type": "Feature", "properties": { "type": "restaurant", "name": "9th Ave Street Food", "lat": 33.7727527, "lon": -84.3781422, "amenity": "restaurant", "cuisine": "", "leisure": "", "osm_id": 4730497342 }, "geometry": { "type": "Point", "coordinates": [ -84.3781422, 33.7727527 ] } },
{ "type": "Feature", "properties": { "type": "restaurant", "name": "Terrapin Taproom", "lat": 33.8898437, "lon": -84.4685547, "amenity": "restaurant", "cuisine": "", "leisure": "", "osm_id": 4764844941 }, "geometry": { "type": "Point", "coordinates": [ -84.4685547, 33.8898437 ] } },
{ "type": "Feature", "properties": { "type": "restaurant", "name": "Yard House", "lat": 33.8892982, "lon": -84.4690812, "amenity": "restaurant", "cuisine": "american", "leisure": "", "osm_id": 4789326286 }, "geometry": { "type": "Point", "coordinates": [ -84.4690812, 33.8892982 ] } },
{ "type": "Feature", "properties": { "type": "restaurant", "name": "La Fonda Latina", "lat": 33.7512325, "lon": -84.3099064, "amenity": "restaurant", "cuisine": "mexican;cuban", "leisure": "", "osm_id": 4802525752 }, "geometry": { "type": "Point", "coordinates": [ -84.3099064, 33.7512325 ] } },
{ "type": "Feature", "properties": { "type": "restaurant", "name": "Poor Hendrix", "lat": 33.7510005, "lon": -84.3095202, "amenity": "restaurant", "cuisine": "", "leisure": "", "osm_id": 4802525753 }, "geometry": { "type": "Point", "coordinates": [ -84.3095202, 33.7510005 ] } },
{ "type": "Feature", "properties": { "type": "restaurant", "name": "Superica", "lat": 33.7571021, "lon": -84.3641809, "amenity": "restaurant", "cuisine": "mexican", "leisure": "", "osm_id": 4879481767 }, "geometry": { "type": "Point", "coordinates": [ -84.3641809, 33.7571021 ] } },
{ "type": "Feature", "properties": { "type": "restaurant", "name": "Yalla", "lat": 33.756806, "lon": -84.3639731, "amenity": "restaurant", "cuisine": "", "leisure": "", "osm_id": 4879481768 }, "geometry": { "type": "Point", "coordinates": [ -84.3639731, 33.756806 ] } },
{ "type": "Feature", "properties": { "type": "restaurant", "name": "Grand Champion BBQ", "lat": 33.756661, "lon": -84.363988, "amenity": "restaurant", "cuisine": "barbecue", "leisure": "", "osm_id": 4879481769 }, "geometry": { "type": "Point", "coordinates": [ -84.363988, 33.756661 ] } },
{ "type": "Feature", "properties": { "type": "restaurant", "name": "Zumi", "lat": 33.7611889, "lon": -84.3652346, "amenity": "restaurant", "cuisine": "sushi", "leisure": "", "osm_id": 4879481800 }, "geometry": { "type": "Point", "coordinates": [ -84.3652346, 33.7611889 ] } },
{ "type": "Feature", "properties": { "type": "restaurant", "name": "Olive Bistro", "lat": 33.7739564, "lon": -84.3658702, "amenity": "restaurant", "cuisine": "mediterranean", "leisure": "", "osm_id": 4879481804 }, "geometry": { "type": "Point", "coordinates": [ -84.3658702, 33.7739564 ] } },
{ "type": "Feature", "properties": { "type": "restaurant", "name": "Metro Fresh", "lat": 33.780234, "lon": -84.368361, "amenity": "restaurant", "cuisine": "sandwich", "leisure": "", "osm_id": 4879481810 }, "geometry": { "type": "Point", "coordinates": [ -84.368361, 33.780234 ] } },
{ "type": "Feature", "properties": { "type": "restaurant", "name": "Chin Chin II On Ponce", "lat": 33.7731434, "lon": -84.3639938, "amenity": "restaurant", "cuisine": "chinese", "leisure": "", "osm_id": 4879481812 }, "geometry": { "type": "Point", "coordinates": [ -84.3639938, 33.7731434 ] } },
{ "type": "Feature", "properties": { "type": "restaurant", "name": "Jia", "lat": 33.7728967, "lon": -84.365937, "amenity": "restaurant", "cuisine": "chinese", "leisure": "", "osm_id": 4879481816 }, "geometry": { "type": "Point", "coordinates": [ -84.365937, 33.7728967 ] } },
{ "type": "Feature", "properties": { "type": "restaurant", "name": "Delta Skyclub Lounge", "lat": 33.6409608, "lon": -84.4388357, "amenity": "restaurant", "cuisine": "", "leisure": "", "osm_id": 4920519122 }, "geometry": { "type": "Point", "coordinates": [ -84.4388357, 33.6409608 ] } },
{ "type": "Feature", "properties": { "type": "restaurant", "name": "Delta Skyclub Lounge", "lat": 33.6404048, "lon": -84.4391068, "amenity": "restaurant", "cuisine": "", "leisure": "", "osm_id": 4920521124 }, "geometry": { "type": "Point", "coordinates": [ -84.4391068, 33.6404048 ] } },
{ "type": "Feature", "properties": { "type": "restaurant", "name": "Delta Skyclub Lounge", "lat": 33.641875, "lon": -84.4325068, "amenity": "restaurant", "cuisine": "", "leisure": "", "osm_id": 4920534421 }, "geometry": { "type": "Point", "coordinates": [ -84.4325068, 33.641875 ] } },
{ "type": "Feature", "properties": { "type": "restaurant", "name": "Delta Skyclub Lounge", "lat": 33.6419262, "lon": -84.4292508, "amenity": "restaurant", "cuisine": "", "leisure": "", "osm_id": 4920540821 }, "geometry": { "type": "Point", "coordinates": [ -84.4292508, 33.6419262 ] } },
{ "type": "Feature", "properties": { "type": "restaurant", "name": "Delta Skyclub Lounge", "lat": 33.6402411, "lon": -84.4199815, "amenity": "restaurant", "cuisine": "", "leisure": "", "osm_id": 4920540822 }, "geometry": { "type": "Point", "coordinates": [ -84.4199815, 33.6402411 ] } },
{ "type": "Feature", "properties": { "type": "restaurant", "name": "Delta Skyclub Lounge", "lat": 33.6405162, "lon": -84.4243066, "amenity": "restaurant", "cuisine": "", "leisure": "", "osm_id": 4920549421 }, "geometry": { "type": "Point", "coordinates": [ -84.4243066, 33.6405162 ] } },
{ "type": "Feature", "properties": { "type": "restaurant", "name": "Delta Skyclub Lounge", "lat": 33.6405995, "lon": -84.4359992, "amenity": "restaurant", "cuisine": "", "leisure": "", "osm_id": 4946370122 }, "geometry": { "type": "Point", "coordinates": [ -84.4359992, 33.6405995 ] } },
{ "type": "Feature", "properties": { "type": "restaurant", "name": "Torched Hop Brewing Company", "lat": 33.7722488, "lon": -84.3793041, "amenity": "restaurant", "cuisine": "", "leisure": "", "osm_id": 5111860821 }, "geometry": { "type": "Point", "coordinates": [ -84.3793041, 33.7722488 ] } },
{ "type": "Feature", "properties": { "type": "restaurant", "name": "JINYA Ramen Bar", "lat": 33.8566636, "lon": -84.3827845, "amenity": "restaurant", "cuisine": "ramen", "leisure": "", "osm_id": 5115722740 }, "geometry": { "type": "Point", "coordinates": [ -84.3827845, 33.8566636 ] } },
{ "type": "Feature", "properties": { "type": "restaurant", "name": "Urban HAI Chinese", "lat": 33.7840851, "lon": -84.3846331, "amenity": "restaurant", "cuisine": "chinese", "leisure": "", "osm_id": 5165488841 }, "geometry": { "type": "Point", "coordinates": [ -84.3846331, 33.7840851 ] } },
{ "type": "Feature", "properties": { "type": "restaurant", "name": "Grant Central Pizza", "lat": 33.7422197, "lon": -84.3735188, "amenity": "restaurant", "cuisine": "pizza", "leisure": "", "osm_id": 5236656422 }, "geometry": { "type": "Point", "coordinates": [ -84.3735188, 33.7422197 ] } },
{ "type": "Feature", "properties": { "type": "restaurant", "name": "Boruboru Sushi", "lat": 33.800788, "lon": -84.3266198, "amenity": "restaurant", "cuisine": "japanese", "leisure": "", "osm_id": 5257720859 }, "geometry": { "type": "Point", "coordinates": [ -84.3266198, 33.800788 ] } },
{ "type": "Feature", "properties": { "type": "restaurant", "name": "Aladdin's", "lat": 33.8006944, "lon": -84.3264374, "amenity": "restaurant", "cuisine": "mediterranean", "leisure": "", "osm_id": 5257720860 }, "geometry": { "type": "Point", "coordinates": [ -84.3264374, 33.8006944 ] } },
{ "type": "Feature", "properties": { "type": "restaurant", "name": "Papi's Cuban Grill", "lat": 33.8010488, "lon": -84.3271482, "amenity": "restaurant", "cuisine": "cuban", "leisure": "", "osm_id": 5257720861 }, "geometry": { "type": "Point", "coordinates": [ -84.3271482, 33.8010488 ] } },
{ "type": "Feature", "properties": { "type": "restaurant", "name": "Paradise Biryani", "lat": 33.8009173, "lon": -84.3272823, "amenity": "restaurant", "cuisine": "indian", "leisure": "", "osm_id": 5257720862 },